<?xml version="1.0" encoding="UTF-8"?>
<kml xmlns="http://www.opengis.net/kml/2.2">
  <Document>
    <name>新潟県ライブカメラマップ / Niigata Prefecture Live Camera Map</name>
    <description><![CDATA[ライブカメラJAPAN FUJIYAMA<br>https://livecamera.fujiyamasan.com/<br>FUJIYAMA LIVE JAPAN<br>http://livejapan.fujiyamasan.com/]]></description>
    <Style id="icon-22-normal">
      <IconStyle>
        <scale>1.1</scale>
        <Icon>
          <href>https://www.gstatic.com/mapspro/images/stock/22-blue-dot.png</href>
        </Icon>
        <hotSpot x="16" xunits="pixels" y="32" yunits="insetPixels"/>
      </IconStyle>
      <LabelStyle>
        <scale>0</scale>
      </LabelStyle>
    </Style>
    <Style id="icon-22-highlight">
      <IconStyle>
        <scale>1.1</scale>
        <Icon>
          <href>https://www.gstatic.com/mapspro/images/stock/22-blue-dot.png</href>
        </Icon>
        <hotSpot x="16" xunits="pixels" y="32" yunits="insetPixels"/>
      </IconStyle>
      <LabelStyle>
        <scale>1.1</scale>
      </LabelStyle>
    </Style>
    <StyleMap id="icon-22">
      <Pair>
        <key>normal</key>
        <styleUrl>#icon-22-normal</styleUrl>
      </Pair>
      <Pair>
        <key>highlight</key>
        <styleUrl>#icon-22-highlight</styleUrl>
      </Pair>
    </StyleMap>
    <Folder>
      <name>新潟県内ライブカメラ</name>
      <Placemark>
        <name>日本海と国道345号線 / the Sea of Japan and National Highway Route 345</name>
        <description><![CDATA[〒959-3665 新潟県村上市桑川８９２−５ 道の駅笹川流れ 夕日会館 「村上市ライブカメラ」 / Yuhi Kaikan, Michinoeki Sasagawanagare, 892-5 Kuwakawa, Murakami-shi, Niigata 959-3665, "Murakami City Live Camera"]]></description>
        <styleUrl>#icon-22</styleUrl>
        <Point>
          <coordinates>
            139.4581315,38.3744598,0
          </coordinates>
        </Point>
      </Placemark>
      <Placemark>
        <name>瀬波海岸ライブカメラ / Senami Coast Live Camera</name>
        <description><![CDATA[〒958-0037 新潟県村上市 瀬波温泉2-10-24 大観荘せなみの湯 / Taikanso Senaminoyu, 2-10-24 Senami Onsen, Murakami-shi, Niigata 958-0037<br>https://livecamera.fujiyamasan.com/niigata-senamionsen.html]]></description>
        <styleUrl>#icon-22</styleUrl>
        <Point>
          <coordinates>
            139.43706,38.213536,0
          </coordinates>
        </Point>
      </Placemark>
      <Placemark>
        <name><![CDATA[荒川のリアルタイム情報 / Arakawa's real-time information]]></name>
        <description>〒959-3131 新潟県村上市藤沢２７−１ 国土交通省 北陸地方整備局 羽越河川国道事務所 / Hokuriku Regional Development Bureau Uetsu River National Highway Office, Ministry of Land, Infrastructure and Transport, 27-1 Fujisawa, Murakami-shi, Niigata-ken 959-3131</description>
        <styleUrl>#icon-22</styleUrl>
        <Point>
          <coordinates>
            139.450679,38.11783,0
          </coordinates>
        </Point>
      </Placemark>
      <Placemark>
        <name>スピードパーク新潟WEB CAMERA / Speed Park Niigata Web Camera</name>
        <description><![CDATA[〒959-2600 新潟県胎内市松波１０１３－３６ スピードパーク新潟 / Speed Park Niigata, 1013-36 Matsunami, Tainai-shi, Niigata 959-2500<br>https://livecamera.fujiyamasan.com/niigata-tainai-speedpark.html]]></description>
        <styleUrl>#icon-22</styleUrl>
        <Point>
          <coordinates>
            139.3715925,38.0891643,0
          </coordinates>
        </Point>
      </Placemark>
      <Placemark>
        <name>櫛形山脈定点カメラ / Kushigata Moutains Fixed Point Camera</name>
        <description><![CDATA[〒959-2642 新潟県胎内市新和町２−１０ 胎内市役所 / Tainai City Hall, 2-10 Shinwa-cho, Tainai-shi, Niigata 959-2642<br>https://livecamera.fujiyamasan.com/niigata-tainai-kushigata.html]]></description>
        <styleUrl>#icon-22</styleUrl>
        <Point>
          <coordinates>
            139.4103428,38.0597323,0
          </coordinates>
        </Point>
      </Placemark>
      <Placemark>
        <name>オートキャンプ場ライブカメラ / Auto Camping Site Live Camera</name>
        <description>〒957-0231 新潟県新発田市藤塚浜２９９ 紫雲寺記念公園 / Niigata Prefectural Shiunjikinen Park, 299 Fujitsukahama, Shibata-shi, Niigata-ken 957-0231</description>
        <styleUrl>#icon-22</styleUrl>
        <Point>
          <coordinates>
            139.2938515,38.0337928,0
          </coordinates>
        </Point>
      </Placemark>
      <Placemark>
        <name>聖籠町海のにぎわい館ライブカメラ / Seiro Town Uminonigiwaikan Live Camera</name>
        <description><![CDATA[〒957-0103 新潟県北蒲原郡聖籠町大字網代浜1612−5　聖籠町海のにぎわい館 / Seiro Town Uminonigiwaikan, 1612-5 Ajirohama, Seiro-machi, Kitakanbara-gun, Niigata-ken 957-0103<br>https://livecamera.fujiyamasan.com/niigata-seiro-uminonigiwaikan.html]]></description>
        <styleUrl>#icon-22</styleUrl>
        <Point>
          <coordinates>
            139.2503206,38.0054019,0
          </coordinates>
        </Point>
      </Placemark>
      <Placemark>
        <name>瓢湖ライブ映像 / Lake Hyoko Live Video</name>
        <description><![CDATA[〒959-2022 新潟県阿賀野市外城町１６−１５ 瓢湖白鳥会館 「阿賀野市役所」 / Hyoko Hakucho Kaikan, 16-15 Tojo-cho, Agano-shi, Niigata 959-2022, "Agano City Hall"]]></description>
        <styleUrl>#icon-22</styleUrl>
        <Point>
          <coordinates>
            139.2361416,37.8366979,0
          </coordinates>
        </Point>
      </Placemark>
      <Placemark>
        <name>慈眼山林昌寺ライブカメラ / Jigenzan Rinshoji Temple Live Camera</name>
        <description>〒959-2221 新潟県阿賀野市保田３２４６ 林昌寺 / Rinshoji Temple, 3246 Yasuda, Agano-shi, Niigata 959-2221</description>
        <styleUrl>#icon-22</styleUrl>
        <Point>
          <coordinates>
            139.2315201,37.7730427,0
          </coordinates>
        </Point>
      </Placemark>
      <Placemark>
        <name>五泉市防災ライブカメラ / Gosen City Disaster Prevention Live Camera</name>
        <description>〒959-1825 新潟県五泉市太田１０９４−１五泉市役所 / Gosen City Hall, 1094-1 Ota, Gosen-shi, Niigata-ken 959-1825</description>
        <styleUrl>#icon-22</styleUrl>
        <Point>
          <coordinates>
            139.1825241,37.7443586,0
          </coordinates>
        </Point>
      </Placemark>
      <Placemark>
        <name>阿賀野市　水原　瓢湖の白鳥リアルタイムライブカメラ画像 / Agano City Mizuhara, White swan of Lake Hyoko Real time live camera image</name>
        <description>〒959-1928 新潟県阿賀野市村杉４６３１−１　ふるさとがしのばれる宿 角屋旅館 / Kadoya Ryokan, 4631-1 Murasugi, Agano-shi, Niigata-ken 959-1928</description>
        <styleUrl>#icon-22</styleUrl>
        <Point>
          <coordinates>
            139.291437,37.800179,0
          </coordinates>
        </Point>
      </Placemark>
      <Placemark>
        <name>阿賀野川口灯台 / Aganokawaguchi Lighthouse</name>
        <description><![CDATA[〒950-3127 新潟県新潟市北区松浜みなと７−１７ 新潟海上保安部 / Niigata Coast Guard, 7-17 Matsuhamaminato, Kita-ku, Niigata-shi, Niigata 950-3127<br>https://livecamera.fujiyamasan.com/niigata-agano-lighthouse.html]]></description>
        <styleUrl>#icon-22</styleUrl>
        <Point>
          <coordinates>
            139.1359915,37.9593652,0
          </coordinates>
        </Point>
      </Placemark>
      <Placemark>
        <name>新潟せんべい王国Ｗｅｂカメラ / Niigata Rice Cracker Kingdom Webcam</name>
        <description><![CDATA[〒950-3134 新潟県新潟市北区新崎２６６１　新潟せんべい王国 / Niigata Senbei Oukoku, 2661 Niizaki, Kita-ku, Niigata-shi, Niigata-ken 950-3134<br>https://livecamera.fujiyamasan.com/niigata-senbeiokoku.html]]></description>
        <styleUrl>#icon-22</styleUrl>
        <Point>
          <coordinates>
            139.164086,37.929474,0
          </coordinates>
        </Point>
      </Placemark>
      <Placemark>
        <name>発車時刻案内板ライブカメラ / Departure time guide plate live camera</name>
        <description><![CDATA[新潟県新潟市中央区花園１丁目１ ＪＲ新潟駅 / Japan Railway Niigata Station, 1-1 Hanazono, Chuo-ku, Niigata-shi, Niigata<br>https://livecamera.fujiyamasan.com/niigata-jrniigataeki.html]]></description>
        <styleUrl>#icon-22</styleUrl>
        <Point>
          <coordinates>
            139.061315,37.912005,0
          </coordinates>
        </Point>
      </Placemark>
      <Placemark>
        <name>新潟日報メディアシップ２０階のライブカメラ　Live Camera in Niigata / Live camera of Niigata Daily News Media Ship 20th floor</name>
        <description>〒950-0088 新潟県新潟市中央区万代３丁目１−１　新潟日報メディアシップ / Niigata Nippo Media Ship, 3-1-1 Bandai, Chuo-ku, Niigata-shi, Niigata-ken 950-0088</description>
        <styleUrl>#icon-22</styleUrl>
        <Point>
          <coordinates>
            139.0560656,37.9186082,0
          </coordinates>
        </Point>
      </Placemark>
      <Placemark>
        <name>信濃川下流ライブカメラ / Shinano river downstream live camera</name>
        <description>〒951-8153 新潟県新潟市中央区文京町１６−９ 信濃川下流河川事務所 / Shinano River Downstream River Office, 16-9 Bunkyo-cho, Chuo-ku, Niigata-shi, Niigata-ken 951-8153</description>
        <styleUrl>#icon-22</styleUrl>
        <Point>
          <coordinates>
            139.0076827,37.906709,0
          </coordinates>
        </Point>
      </Placemark>
      <Placemark>
        <name>青山海岸生中継（ライブカメラ）/ Aoyama Coast live broadcast (live camera)</name>
        <description><![CDATA[〒950-2002 新潟県新潟市西区青山 青山海岸海水浴場　「新潟海岸情報ステーション」/ Aoyama Coast Beach, Aoyama, Nishi-ku, Niigata-shi, Niigata-ken 950-2002, "Niigata Coast Information Station"]]></description>
        <styleUrl>#icon-22</styleUrl>
        <Point>
          <coordinates>
            138.9807307,37.8976522,0
          </coordinates>
        </Point>
      </Placemark>
      <Placemark>
        <name>新潟大学キャンパスカメラ / Niigata University campus camera</name>
        <description>〒950-2181 新潟県新潟市西区五十嵐２の町８０５０　新潟大学 / Niigata University, 8050 Ninocho, Ikarashi, Nishi-ku, Niigata-shi, Niigata-ken 950-2181</description>
        <styleUrl>#icon-22</styleUrl>
        <Point>
          <coordinates>
            138.942539,37.86701,0
          </coordinates>
        </Point>
      </Placemark>
      <Placemark>
        <name>阿賀野川防災情報 / Agano River disaster prevention information</name>
        <description>〒956-0032 新潟県新潟市秋葉区南町14-28 国土交通省北陸地方整備局 阿賀野川河川事務所 / Ministry of Land, Infrastructure and Transport Hokuriku Regional Development Bureau Agano River Office, 14-28 Minami-cho, Akiba-ku, Niigata-shi, Niigata 956-0032</description>
        <styleUrl>#icon-22</styleUrl>
        <Point>
          <coordinates>
            139.11556,37.7937366,0
          </coordinates>
        </Point>
      </Placemark>
      <Placemark>
        <name>佐渡各地のライブ映像 / Live Coverage Sado</name>
        <description>〒952-1209 新潟県佐渡市千種２３２　佐渡市役所 / Sado City Hall, 232 Chikusa, Sado-shi, Niigata 952-1209</description>
        <styleUrl>#icon-22</styleUrl>
        <Point>
          <coordinates>
            138.368254,38.01848,0
          </coordinates>
        </Point>
      </Placemark>
      <Placemark>
        <name>沢崎鼻灯台ライブカメラ / Sawazakihana Live Camera</name>
        <description>〒950-0072 新潟県新潟市中央区竜が島１丁目５−４ 新潟海上保安部 / Niigata Coast Guard, 1-5-4 Ryugashima, Chuo-ku, Niigata-shi, Niigata 950-0072</description>
        <styleUrl>#icon-22</styleUrl>
        <Point>
          <coordinates>
            138.2052837,37.8218215,0
          </coordinates>
        </Point>
      </Placemark>
      <Placemark>
        <name>弥彦村ライブカメラ / Yahiko Village Live Camera</name>
        <description>〒959-0323 新潟県西蒲原郡 弥彦村弥彦971-4 弥彦観光協会 / Yahiko Tourist Association, 971-4 Yahiko, Yahiki-mura, Nishikanbara-gun, Niigata 959-0323</description>
        <styleUrl>#icon-22</styleUrl>
        <Point>
          <coordinates>
            138.8304037,37.7008747,0
          </coordinates>
        </Point>
      </Placemark>
      <Placemark>
        <name>燕市ライブカメラ / Tsubame City Live Camera</name>
        <description>〒959-0295 新潟県燕市吉田西太田1934番地　燕市役所 / Tsubame City Hall, 1934 Yoshidanishiota, Tsubame-shi, Niigata-ken 959-0295</description>
        <styleUrl>#icon-22</styleUrl>
        <Point>
          <coordinates>
            138.8824567,37.6731509,0
          </coordinates>
        </Point>
      </Placemark>
      <Placemark>
        <name>三条市防災カメラ画像 / Sanjo City Disaster Prevention Camera Image</name>
        <description>〒955-0065 新潟県三条市旭町２丁目３−１ 三条市役所 / Sanjo City Hall, Asahi-cho, Sanjo-shi, Niigata 955-0065</description>
        <styleUrl>#icon-22</styleUrl>
        <Point>
          <coordinates>
            138.96173,37.6368176,0
          </coordinates>
        </Point>
      </Placemark>
      <Placemark>
        <name>寺泊海岸 / Teradomari Coast</name>
        <description><![CDATA[〒940-2502 新潟県長岡市寺泊大町９３５３−５２７ 寺泊観光協会　「Marine Resort 寺泊」/ Terasaki Tourist Association, 9353-527 Omachi, Teradomari, Nagaoka-shi, Niigata-ken 940-2502, "Marine Resort Teradomari"]]></description>
        <styleUrl>#icon-22</styleUrl>
        <Point>
          <coordinates>
            138.7673123,37.6436054,0
          </coordinates>
        </Point>
      </Placemark>
      <Placemark>
        <name>天領の里から望む日本海の夕日 / Sunset of the Sea of Japan seeming from Tenryonosato</name>
        <description>〒949-4308 新潟県三島郡出雲崎町尼瀬６−５７天領の里 「出雲崎町役場」/ Tenryonosato, 6-57 Amase, Izumozaki-cho, Mishima-gun, Niigata-ken 949-4308</description>
        <styleUrl>#icon-22</styleUrl>
        <Point>
          <coordinates>
            138.678575,37.538895,0
          </coordinates>
        </Point>
      </Placemark>
      <Placemark>
        <name>見附市ライブカメラ / Mitsuke City Live Camera</name>
        <description>〒954-0059 新潟県見附市昭和町２丁目１−１ 見附市役所 / Mitsuke City Hall, 2-1-1 Showa-machi, Mitsuke-shi, Niigata 954-0059</description>
        <styleUrl>#icon-22</styleUrl>
        <Point>
          <coordinates>
            138.912817,37.5316544,0
          </coordinates>
        </Point>
      </Placemark>
      <Placemark>
        <name>栃尾ライブカメラ / Tochio Live Camera</name>
        <description>〒940-0215 新潟県長岡市栃尾町　「栃尾愛乱度」 / Tochio-cho, Nagaoka-shi, Niigata 940-0215</description>
        <styleUrl>#icon-22</styleUrl>
        <Point>
          <coordinates>
            139.0107505,37.4718696,0
          </coordinates>
        </Point>
      </Placemark>
      <Placemark>
        <name>山田動物クリニックライブカメラ / Yamada Animal Clinic Live Camera</name>
        <description><![CDATA[〒940-0098 新潟県長岡市信濃２丁目１３−２１ 山田動物クリニック / Yamada Animal Clinic, 2-13-21 Shinano, Nagaoka-shi, Niigata 940-0098<br>https://livecamera.fujiyamasan.com/niigata-nagaoka-shinano.html]]></description>
        <styleUrl>#icon-22</styleUrl>
        <Point>
          <coordinates>
            138.838488,37.4509923,0
          </coordinates>
        </Point>
      </Placemark>
      <Placemark>
        <name>長岡市内ライブカメラ / Nagaoka City Live Camera</name>
        <description>〒940-0066 新潟県長岡市東坂之上町３丁目１−１０ スタジオ・チャオ / STUDIO CHAO, 3-1-10 Higashisakanouemachi, Nagaoka-shi, Niigata 940-0066</description>
        <styleUrl>#icon-22</styleUrl>
        <Point>
          <coordinates>
            138.851263,37.450051,0
          </coordinates>
        </Point>
      </Placemark>
      <Placemark>
        <name>長岡市ライブカメラ / Nagaoka City Live Camera</name>
        <description><![CDATA[新潟県長岡市幸町２丁目１−１<br>長岡市役所<br>長岡まちめぐりミュージアム]]></description>
        <styleUrl>#icon-22</styleUrl>
        <Point>
          <coordinates>
            138.838906,37.436584,0
          </coordinates>
        </Point>
      </Placemark>
      <Placemark>
        <name>長岡市ライブカメラ / Nagaoka City Live Camera</name>
        <description>〒940-2138 新潟県長岡市日越１４０２ 長岡市立総合支援学校 / Nagaoka Municipal Comprehensive support school, 1402 Higoshi, Nagaoka-shi, Niigata 940-2138</description>
        <styleUrl>#icon-22</styleUrl>
        <Point>
          <coordinates>
            138.780928,37.442836,0
          </coordinates>
        </Point>
      </Placemark>
      <Placemark>
        <name>長岡科学技術大学ライブカメラ / NAGAOKA University of Technology Live Camera</name>
        <description>〒940-2137 新潟県長岡市上富岡町１６０３−１ 長岡技術科学大学 水工学研究室 / Hydraulic Engineering Laboratory, NAGAOKA University of Technology, 1603-1 Kamitomioka, Nagaoka City, Niigata, 940-2188</description>
        <styleUrl>#icon-22</styleUrl>
        <Point>
          <coordinates>
            138.7787605,37.425721,0
          </coordinates>
        </Point>
      </Placemark>
      <Placemark>
        <name>萬代橋と信濃川 / Bandai Bridge and Shinano River</name>
        <description>新潟県長岡市今朝白２丁目１−４ 新潟総合テレビ / Niigata Sogo Television, 2-1-4 Kesajiro, Nagaoka-shi, Niigata</description>
        <styleUrl>#icon-22</styleUrl>
        <Point>
          <coordinates>
            138.860815,37.449352,0
          </coordinates>
        </Point>
      </Placemark>
      <Placemark>
        <name>新潟電機観測ライブ / Niigata Electric Observation Live</name>
        <description>〒940-1101　新潟県長岡市沢田1丁目3535番地41 新潟電機（株） / Niigata Electric Co., Ltd., 1-3535 Sawada, Nagaoka-shi, Niigata 940-1101</description>
        <styleUrl>#icon-22</styleUrl>
        <Point>
          <coordinates>
            138.8437505,37.4253652,0
          </coordinates>
        </Point>
      </Placemark>
      <Placemark>
        <name>越後丘陵公園ライブカメラ / Echigo Hillside National Government Park Live Camera</name>
        <description>〒940-2043 新潟県長岡市宮本東方町1950 国営越後丘陵公園 / Echigo Hillside National Government Park, Miyamotohigashikata-machi, Nagaoka-shi, Niigata 940-2043</description>
        <styleUrl>#icon-22</styleUrl>
        <Point>
          <coordinates>
            138.7438706,37.4200978,0
          </coordinates>
        </Point>
      </Placemark>
      <Placemark>
        <name>信濃川ライブカメラ / Shinanogawa River Live Camera</name>
        <description>〒940-0098 新潟県長岡市信濃１丁目５ 信濃川河川事務所 / Shinanogawa River Office, 1-5 Shinano, Nagaoka-shi, Niigata 940-0098</description>
        <styleUrl>#icon-22</styleUrl>
        <Point>
          <coordinates>
            138.8378119,37.4480918,0
          </coordinates>
        </Point>
      </Placemark>
      <Placemark>
        <name>今日の米山 / Yoneyama Today</name>
        <description>〒945-0064 新潟県柏崎市中央町５−５０ 柏崎市役所 / Kashiwazaki City Hall, 5-50 Chuo-cho, Kashiwazaki-shi, Niigata 945-0064</description>
        <styleUrl>#icon-22</styleUrl>
        <Point>
          <coordinates>
            138.5589696,37.3719659,0
          </coordinates>
        </Point>
      </Placemark>
      <Placemark>
        <name>柏崎ライブカメラ / Kashiwazaki Live Camera</name>
        <description>〒945-0854 新潟県柏崎市東の輪町８−１８ 柏崎マリーナ / Kashiwazaki Marina, 8-18 Tonowa-cho, Kashiwazaki-shi, Niigata 945-0854</description>
        <styleUrl>#icon-22</styleUrl>
        <Point>
          <coordinates>
            138.5204961,37.3603515,0
          </coordinates>
        </Point>
      </Placemark>
      <Placemark>
        <name>米山ライブカメラ</name>
        <description><![CDATA[新潟県柏崎市藤橋１７１９<br>新潟工科大学<br>情報通信ネットワーク研究室]]></description>
        <styleUrl>#icon-22</styleUrl>
        <Point>
          <coordinates>
            138.57914,37.339592,0
          </coordinates>
        </Point>
      </Placemark>
      <Placemark>
        <name>魚沼市ライブカメラ / Uonuma City Live Camera</name>
        <description>〒946-0304 新潟県魚沼市穴沢２１５−１ 魚沼市役所入広瀬庁舎 / Uonuma city hall Irihirose building, 215-1 Anasawa, Uonuma-shi, Niigata 946-0304</description>
        <styleUrl>#icon-22</styleUrl>
        <Point>
          <coordinates>
            139.0711263,37.3572428,0
          </coordinates>
        </Point>
      </Placemark>
      <Placemark>
        <name>須原スキー場のライブ映像 / Live Video of Suhara Ski Area</name>
        <description>〒946-0216 新潟県魚沼市須原９３２ 民宿 小西屋 /  Guest House Konishiya, 932 Suhara, Uonuma-shi, Niigata 946-0216</description>
        <styleUrl>#icon-22</styleUrl>
        <Point>
          <coordinates>
            139.015095,37.319527,0
          </coordinates>
        </Point>
      </Placemark>
      <Placemark>
        <name>魚沼市ライブカメラ / Uonuma City Live Camera</name>
        <description>〒946-0216 新潟県魚沼市須原５２０ 魚沼市役所守門庁舎 / Uonuma City Hall Morikado Building, 520 Suhara, Uonuma-shi, Niigata 946-0216</description>
        <styleUrl>#icon-22</styleUrl>
        <Point>
          <coordinates>
            139.0142152,37.3173168,0
          </coordinates>
        </Point>
      </Placemark>
      <Placemark>
        <name>魚沼市ライブカメラ / Uonuma City Live Camera</name>
        <description>〒946-0051 新潟県魚沼市今泉１４８８−１ 魚沼市役所広神庁舎 / Uonuma city hall Hirokami building, 1488-1 Imaizumi, Uonuma-shi, Niigata 946-0051</description>
        <styleUrl>#icon-22</styleUrl>
        <Point>
          <coordinates>
            138.976965,37.2559167,0
          </coordinates>
        </Point>
      </Placemark>
      <Placemark>
        <name>魚沼市ライブカメラ / Uonuma City Live Camera</name>
        <description>〒949-7413 新潟県魚沼市堀之内１３０ 魚沼市役所堀之内庁舎 / Uonuma City Hall Horinouchi Branch Office, 130 Horinouchi, Uonuma-shi, Niigata 949-7413</description>
        <styleUrl>#icon-22</styleUrl>
        <Point>
          <coordinates>
            138.924286,37.244097,0
          </coordinates>
        </Point>
      </Placemark>
      <Placemark>
        <name>魚沼市ライブカメラ / Uonuma City Live Camera</name>
        <description>〒946-0011 新潟県魚沼市小出島１３０−１ 魚沼市役所 / Uonuma City Hall, 130-1 Koidejima, Uonuma-shi, Niigata 946-0011</description>
        <styleUrl>#icon-22</styleUrl>
        <Point>
          <coordinates>
            138.961172,37.230328,0
          </coordinates>
        </Point>
      </Placemark>
      <Placemark>
        <name>魚沼市ライブカメラ / Uonuma City Live Camera</name>
        <description>〒946-0073 新潟県魚沼市大沢２１３−１ 魚沼市役所湯之谷庁舎 / Uonuma City Hall Yunotani Building, 213-1 Osawa, Uonuma-shi, Niigata 946-0073</description>
        <styleUrl>#icon-22</styleUrl>
        <Point>
          <coordinates>
            139.0084,37.22657,0
          </coordinates>
        </Point>
      </Placemark>
      <Placemark>
        <name>新井地域</name>
        <description>妙高市ライブカメラ</description>
        <styleUrl>#icon-22</styleUrl>
        <Point>
          <coordinates>
            138.255386,37.026814,0
          </coordinates>
        </Point>
      </Placemark>
      <Placemark>
        <name>八海山ライブカメラ / Mt. Hakkai Live Camera</name>
        <description>八海山ロープウェイ山頂駅 プリンスホテル八海山 ロープウェイ / Hakkaisan Ropeway Mountaintop Station Prince Hotel Hakkaisan Ropeway</description>
        <styleUrl>#icon-22</styleUrl>
        <Point>
          <coordinates>
            138.991642,37.125149,0
          </coordinates>
        </Point>
      </Placemark>
      <Placemark>
        <name>ゆきぐにネット八海山ライブカメラ / Yukiguninet Hakkaisan Live Camera</name>
        <description>〒949-7104 新潟県南魚沼市寺尾１４４８　五日町スキー場 / Itsukamachi Ski Area, 1448 Terao, Minamiuonuma-shi, Niigata 949-7104</description>
        <styleUrl>#icon-22</styleUrl>
        <Point>
          <coordinates>
            138.89946,37.1217106,0
          </coordinates>
        </Point>
      </Placemark>
      <Placemark>
        <name>六日町市街～塩沢方面</name>
        <description><![CDATA[新潟県南魚沼市余川<br>雪国まいたけ本社工場]]></description>
        <styleUrl>#icon-22</styleUrl>
        <Point>
          <coordinates>
            138.874955,37.078292,0
          </coordinates>
        </Point>
      </Placemark>
      <Placemark>
        <name>市街・坂戸山方面ライブカメラ / City and Sakadoyama Live Camera</name>
        <description>新潟県南魚沼市六日町 六日町駅・ＪＲ／上越線 / Muikamachi Station, Muikamachi, Minamiuonuma-shi, Niigata-ken</description>
        <styleUrl>#icon-22</styleUrl>
        <Point>
          <coordinates>
            138.875856,37.06718,0
          </coordinates>
        </Point>
      </Placemark>
      <Placemark>
        <name>魚沼川・関越道～巻機山方面 / Minamiuonuma River, Kanetsu Expressway and Mt. Makihata</name>
        <description>〒949-6363 新潟県南魚沼市下一日市８５５ 道の駅南魚沼 今泉記念館 / Roadside Station Minamiuonuma Imaizumi Memorial Hall, 855 Shimohitoichi, Minamiuonuma-shi, Niigata-ken 949-6363</description>
        <styleUrl>#icon-22</styleUrl>
        <Point>
          <coordinates>
            138.8191667,37.0029372,0
          </coordinates>
        </Point>
      </Placemark>
      <Placemark>
        <name>塩沢石打ICライブカメラ / Shiozawa Ishiuchi IC Live Camera</name>
        <description>新潟県南魚沼市姥島新田 関越自動車道塩沢石打IC / Maiko Kanetsu Shiozawa Ishiuchi IC, Ubashimashinden, Uonuma-shi, Niigata</description>
        <styleUrl>#icon-22</styleUrl>
        <Point>
          <coordinates>
            138.82144,36.995835,0
          </coordinates>
        </Point>
      </Placemark>
      <Placemark>
        <name>舞子スノーリゾート　飯士山荘 / Maiko Snow Resort, Iiji Sanso</name>
        <description><![CDATA[〒949-6423 新潟県南魚沼市舞子２０５６ 飯士山荘 / Iiji Sanso, 2056 Maiko, Minamiuonuma-shi, Niigata 949-6423<br>https://livecamera.fujiyamasan.com/maiko-snow-resort.html]]></description>
        <styleUrl>#icon-22</styleUrl>
        <Point>
          <coordinates>
            138.826536,36.9798522,0
          </coordinates>
        </Point>
      </Placemark>
      <Placemark>
        <name>石打丸山スキー場 / Ishiuchi Maruyama Ski Resort</name>
        <description>〒949-6372 新潟県南魚沼市石打１７８２−２ 石打丸山スキー場 / Ishiuchi Maruyama Ski Resort, 1782-2 Minamiuonuma-shi, Niigata 949-6372</description>
        <styleUrl>#icon-22</styleUrl>
        <Point>
          <coordinates>
            138.794553,36.976398,0
          </coordinates>
        </Point>
      </Placemark>
      <Placemark>
        <name>中央エリアのライブカメラ / Central Area Live Camera</name>
        <description>〒949-6101 新潟県南魚沼郡 湯沢町湯沢（大字）１０３９−２ ガーラ湯沢スキー場 / GALA Yuzawa Ski Resort, 1039-2 Yuzawa, Yuzawa-machi, Minamiuonuma-gun, Niigata 949-6101</description>
        <styleUrl>#icon-22</styleUrl>
        <Point>
          <coordinates>
            138.7996066,36.9508522,0
          </coordinates>
        </Point>
      </Placemark>
      <Placemark>
        <name>湯沢高原スキー場ライブカメラ / Yuzawa Kogen Ski Resort Live Camera</name>
        <description>〒949-6101 新潟県南魚沼郡湯沢町湯沢（大字）４９０　湯沢高原スキー場 / Yuzawa Kogen Ski Resort, 490 Yuzawa, Yuzawa-cho, Minamiuonuma-gun, Niigata-ken 949-6101</description>
        <styleUrl>#icon-22</styleUrl>
        <Point>
          <coordinates>
            138.794133,36.941322,0
          </coordinates>
        </Point>
      </Placemark>
      <Placemark>
        <name>中里エリアライブ映像 / Nakazato Area Live Video</name>
        <description>〒949-6103 新潟県南魚沼郡湯沢町土樽４７０７−１　ホテル エンゼルグランディア越後中里温泉 / Hotel Angel Grandia Echigonakazato, 4707-1 Tsuchitaru, Yuzawa-machi, Minamiuonuma-gun, Niigata-ken 949-6103</description>
        <styleUrl>#icon-22</styleUrl>
        <Point>
          <coordinates>
            138.848551,36.905096,0
          </coordinates>
        </Point>
      </Placemark>
      <Placemark>
        <name>苗場スキー場大斜面ライブカメラ / Naeba Ski Resort Large slope live camera</name>
        <description>〒949-6212 新潟県南魚沼郡 湯沢町三国２０２ 苗場スキー場 / Naeba Ski Resort, 202 Mikuni, Yuzawa-machi, Minamiuonuma-gun, Niigata 949-6212</description>
        <styleUrl>#icon-22</styleUrl>
        <Point>
          <coordinates>
            138.77772,36.7927904,0
          </coordinates>
        </Point>
      </Placemark>
      <Placemark>
        <name>かぐらスキー場ライブカメラ / Kagura Ski Resort Live Camera</name>
        <description>〒949-6211 新潟県南魚沼郡湯沢町三俣742 かぐらスキー場 / Kagura Ski Resort, 742 Mitsumata, Yuzawa-machi, Minamiuonuma-gun, Niigata 949-6211</description>
        <styleUrl>#icon-22</styleUrl>
        <Point>
          <coordinates>
            138.726554,36.8599301,0
          </coordinates>
        </Point>
      </Placemark>
      <Placemark>
        <name>かぐら・みつまたライブカメラ / Kagura and Mitsumata Live Camera</name>
        <description>〒949-6211 新潟県南魚沼郡湯沢町三俣７２３−２　かぐら ホワイトホースイン / Kagura White Horse Inn, 723-2 Mitsumata, Yuzawa-machi, Minamiuonuma-gun, Niigata-ken 949-6211</description>
        <styleUrl>#icon-22</styleUrl>
        <Point>
          <coordinates>
            138.775628,36.891709,0
          </coordinates>
        </Point>
      </Placemark>
      <Placemark>
        <name>美人林のライブカメラ / Bijinbayashi Live Camera</name>
        <description>〒942-1411 新潟県十日町市松之山松口１７１２−２ 越後松之山森の学校キョロロ / Echigo Matsunoyama Forest School Kyororo, 1712-2 Matsuguchi, Matsunoyama, Tokamachi-shi, Niigata-ken 942-1411</description>
        <styleUrl>#icon-22</styleUrl>
        <Point>
          <coordinates>
            138.6173461,37.0997018,0
          </coordinates>
        </Point>
      </Placemark>
      <Placemark>
        <name>美人林ライブカメラ / Bijinbayashi Live Camera</name>
        <description><![CDATA[〒942-1411 新潟県十日町市松之山松口1712−２ 美人林 「松之山.com」 / Bijinbayashi, 1712-2 Matsuguchi, Matsunoyama, Tokamachi-shi, Niigata-ken 942-1411, "Matsunoyama.com"]]></description>
        <styleUrl>#icon-22</styleUrl>
        <Point>
          <coordinates>
            138.6186892,37.0998276,0
          </coordinates>
        </Point>
      </Placemark>
      <Placemark>
        <name>無印良品津南キャンプ場 / MUJI Tsunan Campground</name>
        <description>〒949-8126 新潟県中魚沼郡津南町大字上郷寺石丙782−5 無印良品キャンプ場 / MUJI Campground, 782-5 Kamigoteraishihei, Tsunan-cho, Nakauonuma-gun, Niigata 949-8126</description>
        <styleUrl>#icon-22</styleUrl>
        <Point>
          <coordinates>
            138.584343,37.020245,0
          </coordinates>
        </Point>
      </Placemark>
      <Placemark>
        <name>キューピッドバレイスキー場 / Cupid Valley ski resort</name>
        <description>〒942-0534 新潟県上越市須川 キューピットバレイスキー場 / Cupid Valley ski resort, Sugawa, Joetsu-shi, Niigata 942-0534</description>
        <styleUrl>#icon-22</styleUrl>
        <Point>
          <coordinates>
            138.4855197,37.056461,0
          </coordinates>
        </Point>
      </Placemark>
      <Placemark>
        <name>秋山郷 / Akiyamago</name>
        <description>〒949-8317 新潟県中魚沼郡津南町大赤沢丁９７ 山源木工 / Yamagen Woodworking, 97 Oakasawatei, Tsunan-machi, Nakauonuma-gun, Niigata 949-8317</description>
        <styleUrl>#icon-22</styleUrl>
        <Point>
          <coordinates>
            138.6383734,36.8812596,0
          </coordinates>
        </Point>
      </Placemark>
      <Placemark>
        <name>上越妙高タウン情報ライブカメラ / Joetsu Myoko Town Information Live Camera</name>
        <description>〒943-8522 新潟県上越市西城町２丁目２−２７ JCV 上越ケーブルビジョン / JCV Joetsu Cable Vision, 2-2-27 Nishishiro-cho, Joetsu-shi, Niigata-ken 943-8522</description>
        <styleUrl>#icon-22</styleUrl>
        <Point>
          <coordinates>
            138.250477,37.11312,0
          </coordinates>
        </Point>
      </Placemark>
      <Placemark>
        <name>関川・姫川 ＣＣＴＶ / Sekikawa River and Himekawa River CCTV</name>
        <description>〒943-0847 新潟県上越市南新町３−５６ 国土交通省北陸地方整備局高田河川国道事務所 / Ministry of Land, Infrastructure and Transport Hokuriku Regional Development Bureau Takada River National Highway Office, 3-56 Minamishin-machi, Joetsu-shi, Niigata-ken 943-0847</description>
        <styleUrl>#icon-22</styleUrl>
        <Point>
          <coordinates>
            138.245809,37.097738,0
          </coordinates>
        </Point>
      </Placemark>
      <Placemark>
        <name>妙高市ライブカメラ / Myoko City Live Camera</name>
        <description>〒944-0044 新潟県 妙高市栄町5−1 妙高市役所 / Myoko City Hall, 5-1 Sakae-machi, Myoko-shi, Niigata-ken 944-0044</description>
        <styleUrl>#icon-22</styleUrl>
        <Point>
          <coordinates>
            138.253455,37.025272,0
          </coordinates>
        </Point>
      </Placemark>
      <Placemark>
        <name>高谷池と火打山 / Pond Koyaike and Mt. Hiuchi</name>
        <description>新潟県妙高市大字杉野澤字八貴山国有林42林班イ小班 / Myoko-shi, Niigata</description>
        <styleUrl>#icon-22</styleUrl>
        <Point>
          <coordinates>
            138.0779314,36.9099948,0
          </coordinates>
        </Point>
      </Placemark>
      <Placemark>
        <name>赤倉観光リゾートスキー場ライブカメラ / AKAKAN LIVE CAMERA</name>
        <description>〒949-2102 新潟県妙高市田切２１６　赤倉観光リゾートスキー場 / Akakura Kanko Ski Resort, 216 Tagiri, Myoko-shi, Niigata-ken 949-2102</description>
        <styleUrl>#icon-22</styleUrl>
        <Point>
          <coordinates>
            138.1775916,36.8868768,0
          </coordinates>
        </Point>
      </Placemark>
      <Placemark>
        <name>新潟県焼山監視システム / Niigata Prefecture Yakeyama Surveillance System</name>
        <description>新潟県糸魚川市大平 焼山 / Yakeyama, Itoigawa-shi, Niigata-ken</description>
        <styleUrl>#icon-22</styleUrl>
        <Point>
          <coordinates>
            138.035316,36.921077,0
          </coordinates>
        </Point>
      </Placemark>
      <Placemark>
        <name>親不知海水浴場ライブカメラ / Oyashirazu Beach Live Camera</name>
        <description><![CDATA[〒949-0308 新潟県糸魚川市外波 親不知海水浴 場 「糸魚川市役所」/ Oyashirazu Beach, Tonami, Itoigawa-shi, Niigata-ken 949-0308, "Itoigawa City Official Web Site"]]></description>
        <styleUrl>#icon-22</styleUrl>
        <Point>
          <coordinates>
            137.7307867,37.0044455,0
          </coordinates>
        </Point>
      </Placemark>
      <Placemark>
        <name>BSN新潟放送YouTube公式チャンネルライブ配信 / BSN Niigata Broadcasting YouTube official channel live distribution</name>
        <description><![CDATA[〒951-8133 新潟県新潟市中央区川岸町３丁目１８ BSN 新潟放送 / Niigata Broadcasting, 3-18 Kawagishi-cho, Chuo-ku, Niigata City, Niigata Prefecture 951-8133<br>https://livecamera.fujiyamasan.com/niigata-bsnofficial.html]]></description>
        <styleUrl>#icon-22</styleUrl>
        <Point>
          <coordinates>
            139.0282791,37.9088607,0
          </coordinates>
        </Point>
      </Placemark>
      <Placemark>
        <name>新潟日報メディアシップ信濃川河口ライブカメラ / Niigata Nippo Media Ship Shinano River Kawaguchi Live Camera</name>
        <description><![CDATA[〒950-0088 新潟県新潟市中央区万代３丁目１−１ 新潟日報メディアシップそらの広場 「新潟日報モア」/ Niigata Nippo Mediaship Sora no Shiro , 1-1 1-1 Bandai, Chuo-ku, Niigata 950-0088, Japan, "Niigata Nippo Moa"<br>https://livecamera.fujiyamasan.com/niigata-mediaship20.html]]></description>
        <styleUrl>#icon-22</styleUrl>
        <Point>
          <coordinates>
            139.0560408,37.9185917,0
          </coordinates>
        </Point>
      </Placemark>
      <Placemark>
        <name>NTTルパルク新潟八千代第1駐車場2ライブカメラ / NTT Le Parc Niigata Yachiyo 1st parking lot 2 live camera</name>
        <description>〒950-0909 新潟県新潟市中央区八千代１丁目３−９ NTTルパルク新潟八千代第1駐車場 「エヌティティルパルク(NTTルパルク)」/ NTT Luparque Niigata Yachiyo 1st Parking Lot, 3-9 Yachiyo 1-chome, Chuo-ku, Niigata 950-0909, Japan,  “NTT Ruparque”</description>
        <styleUrl>#icon-22</styleUrl>
        <Point>
          <coordinates>
            139.0528001,37.9127078,0
          </coordinates>
        </Point>
      </Placemark>
      <Placemark>
        <name>信濃川網川原ライブカメラ / Shinano River Amigawara Live Camera</name>
        <description><![CDATA[新潟県新潟市中央区網川原 「信濃川下流河川事務所」/ Amigawara, Chuo-ku, Niigata City, Niigata, "Shinano River Lower River Office"]]></description>
        <styleUrl>#icon-22</styleUrl>
        <Point>
          <coordinates>
            139.0140542,37.8934801,0
          </coordinates>
        </Point>
      </Placemark>
      <Placemark>
        <name>栗ノ木川弁天橋ライブカメラ / Kurinoki River Benten Bridge Live Camera</name>
        <description><![CDATA[〒950-0925 新潟県新潟市中央区弁天橋通１丁目１弁天橋（べんてんばし）「信濃川下流河川事務所」/  Bentenbashi, 1-Bentenbashi, Bentenbashi-dori, Chuo-ku, Niigata, 950-0925, Japan "Shinano River Lower River Office"<br>https://livecamera.fujiyamasan.com/niigata-bentenbashi.html]]></description>
        <styleUrl>#icon-22</styleUrl>
        <Point>
          <coordinates>
            139.0679158,37.8967441,0
          </coordinates>
        </Point>
      </Placemark>
      <Placemark>
        <name>鳥屋野潟桜木橋ライブカメラ / Toyanogata Sakuragibashi Live Camera</name>
        <description><![CDATA[新潟県新潟市中央区神道寺南 「信濃川下流河川事務所」/ "Shinano River Lower River Office", Kandouji Minami, Chuo-ku, Niigata City, Niigata Prefecture<br>https://livecamera.fujiyamasan.com/niigata-sakuragibashi.html]]></description>
        <styleUrl>#icon-22</styleUrl>
        <Point>
          <coordinates>
            139.0578507,37.894457,0
          </coordinates>
        </Point>
      </Placemark>
      <Placemark>
        <name>新潟県スポーツ公園入口ライブカメラ / Niigata Sports Park Entrance Live Camera</name>
        <description><![CDATA[新潟県新潟市中央区長潟 「信濃川下流河川事務所」/ Nagata, Chuo-ku, Niigata Prefecture "Shinano River Lower River Office"<br>https://livecamera.fujiyamasan.com/niigata-sport-park.html]]></description>
        <styleUrl>#icon-22</styleUrl>
        <Point>
          <coordinates>
            139.0618301,37.8888384,0
          </coordinates>
        </Point>
      </Placemark>
      <Placemark>
        <name>親松導水路上沼ライブカメラ / Oyamatsu Dosuiro Uenuma Live Camera</name>
        <description>〒950-1148 新潟県新潟市中央区上沼 「信濃川下流河川事務所」</description>
        <styleUrl>#icon-22</styleUrl>
        <Point>
          <coordinates>
            139.0376774,37.881922,0
          </coordinates>
        </Point>
      </Placemark>
      <Placemark>
        <name>鳥屋野潟新堀橋ライブカメラ / Toyanogata Nibori Bridge Live Camera</name>
        <description><![CDATA[新潟県新潟市中央区清五郎 「信濃川下流河川事務所」/ Seigoro, Chuo-ku, Niigata City "Shinano River Lower River Office"<br>https://livecamera.fujiyamasan.com/niigata-seigoro-shinboribashi.html]]></description>
        <styleUrl>#icon-22</styleUrl>
        <Point>
          <coordinates>
            139.0467741,37.8815437,0
          </coordinates>
        </Point>
      </Placemark>
      <Placemark>
        <name>鳥屋野潟清五郎ライブカメラ / Toyanogata Seigoro Live Camera</name>
        <description><![CDATA[新潟県新潟市中央区清五郎 「信濃川下流河川事務所」/ Seigoro, Chuo-ku, Niigata City, Niigata, "Shinano River Lower River Office"<br> https://livecamera.fujiyamasan.com/niigata-chuoku-seigoro.html]]></description>
        <styleUrl>#icon-22</styleUrl>
        <Point>
          <coordinates>
            139.0533616,37.88278,0
          </coordinates>
        </Point>
      </Placemark>
      <Placemark>
        <name>信濃川水門ライブカメラ / Shinano River Sluice Live Camera</name>
        <description><![CDATA[新潟県新潟市中央区網川原 「信濃川下流河川事務所」/ Amigawara, Chuo-ku, Niigata City, Niigata Prefecture, "Shinano River Lower River Office"<br>https://livecamera.fujiyamasan.com/niigata-shinanogawa-suimon.html]]></description>
        <styleUrl>#icon-22</styleUrl>
        <Point>
          <coordinates>
            139.0141307,37.8964399,0
          </coordinates>
        </Point>
      </Placemark>
      <Placemark>
        <name>鳥屋野潟小張木ライブカメラ / Toyanogata Kobarinoki Live Camera</name>
        <description><![CDATA[〒950-0942 新潟県新潟市中央区小張木 「信濃川下流河川事務所」/ Kobariki, Chuo-ku, Niigata 950-0942, Niigata Prefecture, "Shinano River Lower River Office''<br>https://livecamera.fujiyamasan.com/niigata-kobarinoki.html]]></description>
        <styleUrl>#icon-22</styleUrl>
        <Point>
          <coordinates>
            139.0440815,37.8843284,0
          </coordinates>
        </Point>
      </Placemark>
      <Placemark>
        <name>信濃川本川東関屋ライブカメラ / Shinano River Honsen Higashisekiya Live Camera</name>
        <description><![CDATA[〒951-8144 新潟県新潟市中央区関南町 「信濃川本川下流河川事務所」/ Shinano River Main River Lower River Office, Kannan-cho, Chuo-ku, Niigata City, Niigata Prefecture 951-8144<br>https://livecamera.fujiyamasan.com/niigata-shinanogawa-sekinan.html]]></description>
        <styleUrl>#icon-22</styleUrl>
        <Point>
          <coordinates>
            139.013223,37.8984027,0
          </coordinates>
        </Point>
      </Placemark>
      <Placemark>
        <name>信濃川やすらぎ堤緑地 (右岸)</name>
        <description>〒950-0994 新潟県新潟市中央区上所２丁目２−１４</description>
        <styleUrl>#icon-22</styleUrl>
        <Point>
          <coordinates>
            139.0361127,37.9077332,0
          </coordinates>
        </Point>
      </Placemark>
      <Placemark>
        <name>信濃川やすらぎ堤緑地ライブカメラ / Shinano River Yasuragi bank green space live camera</name>
        <description><![CDATA[〒951-8133 新潟県新潟市中央区川岸町 信濃川やすらぎ堤緑地 (左岸) 「信濃川下流河川事務所」/ Shinano River Yasuragi bank green space (left bank),  Kawagishi-cho, Chuo-ku, Niigata City, Niigata Prefecture 951-8133,  ``Shinano River Lower River Office''<br>https://livecamera.fujiyamasan.com/niigata-shinanogawa-yasuragi.html]]></description>
        <styleUrl>#icon-22</styleUrl>
        <Point>
          <coordinates>
            139.0340976,37.9101084,0
          </coordinates>
        </Point>
      </Placemark>
      <Placemark>
        <name>信濃川萬代橋ライブカメラ / Shinano River Bandai River Live Camera</name>
        <description><![CDATA[新潟県新潟市中央区万代２丁目４ 萬代橋 「信濃川下流河川事務所」/ Bandai Bridge, 2-4 Bandai, Chuo-ku, Niigata Prefecture,  "Shinano River Lower River Office"<br>https://livecamera.fujiyamasan.com/niigata-bandaibashi.html]]></description>
        <styleUrl>#icon-22</styleUrl>
        <Point>
          <coordinates>
            139.0532023,37.9194464,0
          </coordinates>
        </Point>
      </Placemark>
      <Placemark>
        <name>新潟市水族館 マリンピア日本海 / Niigata Aquarium Marinepia Sea of Japan</name>
        <description><![CDATA[〒951-8555 新潟県新潟市中央区西船見町５９３２−４４５ 新潟市水族館 マリンピア日本海 「信濃川下流河川事務所」/ Niigata City Aquarium Marinepia Nihonkai, 5932-445 Nishifunami-cho, Chuo-ku, Niigata 951-8555, Japan, "Shinano River Lower River Office"<br>https://livecamera.fujiyamasan.com/niigata-kubotacho-marinpia.html]]></description>
        <styleUrl>#icon-22</styleUrl>
        <Point>
          <coordinates>
            139.0280003,37.923672,0
          </coordinates>
        </Point>
      </Placemark>
      <Placemark>
        <name>国道116号美咲町ライブカメラ / National Highway No. 116 Misaki Town Live Camera</name>
        <description><![CDATA[〒950-0954 新潟県新潟市中央区美咲町 「新潟国道事務所」/ Niigata National Highway Office, Misaki-cho, Chuo-ku, Niigata City 950-0954, Niigata Prefecture<br>https://livecamera.fujiyamasan.com/niigata-misakicho-r116.html]]></description>
        <styleUrl>#icon-22</styleUrl>
        <Point>
          <coordinates>
            139.0151918,37.8928963,0
          </coordinates>
        </Point>
      </Placemark>
      <Placemark>
        <name>国道7号東堀前通ライブカメラ / National Highway 7 Higashibori Maedori Live Camera</name>
        <description><![CDATA[新潟県新潟市中央区東堀前通６番町 「新潟国道事務所」/ 6th Town, Higashihorimaedori, Chuo-ku, Niigata Prefecture, "Niigata National Highway Office"<br>https://livecamera.fujiyamasan.com/niigata-higashibori-r7.html]]></description>
        <styleUrl>#icon-22</styleUrl>
        <Point>
          <coordinates>
            139.0459108,37.9208769,0
          </coordinates>
        </Point>
      </Placemark>
      <Placemark>
        <name>新潟県庁17階ライブカメラ / Niigata Prefectural Office 17th floor live camera</name>
        <description><![CDATA[〒950-0965 新潟県新潟市中央区新光町４−１ 「新潟国道事務所」/ 4-1 Nikko Town, Chuo-ku, Niigata City, Niigata Prefecture 950-0965, "Niigata National Road Office"<br>https://livecamera.fujiyamasan.com/niigata-kencho17.html]]></description>
        <styleUrl>#icon-22</styleUrl>
        <Point>
          <coordinates>
            139.0236876,37.902254,0
          </coordinates>
        </Point>
      </Placemark>
      <Placemark>
        <name>国道49号姥ヶ山インターチェンジライブカメラ / National highway No. 49 Ubagayama interchange live camera</name>
        <description><![CDATA[〒950-0924 新潟県新潟市中央区美の里１９ 姥ケ山IC 「新潟国道事務所」/ Ubagayama IC, 19 Minori, Chuo-ku, Niigata 950-0924, Niigata Prefecture,   “Niigata National Highway Office”<br>https://livecamera.fujiyamasan.com/niigata-ubagayama-r49.html]]></description>
        <styleUrl>#icon-22</styleUrl>
        <Point>
          <coordinates>
            139.0795268,37.883824,0
          </coordinates>
        </Point>
      </Placemark>
      <Placemark>
        <name>国道7号紫竹山インターチェンジライブカメラ / National highway No. 7 Shichikuyama interchange live camera</name>
        <description><![CDATA[〒950-0914 新潟県新潟市中央区紫竹山３丁目 栗ノ木バイパス 紫竹山IC 「新潟国道事務所」/ Shichikuyama IC, Kurinoki Bypass, 3-chome Shichikuyama, Chuo-ku, Niigata-shi, Niigata Prefecture, 950-0914, "Niigata National Highway Office"<br>https://livecamera.fujiyamasan.com/niigata-shichikuyama-r7.html]]></description>
        <styleUrl>#icon-22</styleUrl>
        <Point>
          <coordinates>
            139.0738179,37.9025357,0
          </coordinates>
        </Point>
      </Placemark>
      <Placemark>
        <name>国道8号桜木インターチェンジライブカメラ / National highway No. 8 Sakuragi interchange live camera</name>
        <description><![CDATA[〒950-0983 新潟県新潟市中央区神道寺２丁目７ 桜木IC 「新潟国道事務所」/ Sakuragi IC, 2-7 Kandoji, Chuo-ku, Niigata-shi, Niigata Prefecture 950-0983,  "Niigata National Highway Office"<br>https://livecamera.fujiyamasan.com/niigata-sakuragiic-r8.html]]></description>
        <styleUrl>#icon-22</styleUrl>
        <Point>
          <coordinates>
            139.0530647,37.8959446,0
          </coordinates>
        </Point>
      </Placemark>
      <Placemark>
        <name>派川新井郷川分水路新元島町ライブカメラ / Hasen Niigogawa river diversion Niimotojima live camera</name>
        <description><![CDATA[〒950-3123 新潟県新潟市北区新元島町 「新潟県河川防災情報システム」/ Niimotojima-cho, Kita-ku, Niigata City, Niigata Prefecture 950-3123, "Niigata River Disaster Prevention Information System"<br>https://livecamera.fujiyamasan.com/niigata-shinmotojimacho.html]]></description>
        <styleUrl>#icon-22</styleUrl>
        <Point>
          <coordinates>
            139.1437488,37.9446187,0
          </coordinates>
        </Point>
      </Placemark>
      <Placemark>
        <name>阿賀野川胡桃山ライブカメラ / Aganogawa Kurumiyama live camera</name>
        <description><![CDATA[〒950-3367 新潟県新潟市北区高森西大下山３９０１−１ 国土交通省 北陸地方整備局 阿賀野川河川事務所 胡桃山出張所 / 3901-1 Takamori Nishi-Oshitayama, Kita-ku, Niigata 950-3367, Niigata Prefecture Aganogawa River Office, Aganogawa River Office, Ministry of Land, Infrastructure, Transport and Tourism Kuroyama Branch Office<br>https://livecamera.fujiyamasan.com/niigata-agano-kurumiyama.html]]></description>
        <styleUrl>#icon-22</styleUrl>
        <Point>
          <coordinates>
            139.152161,37.915529,0
          </coordinates>
        </Point>
      </Placemark>
      <Placemark>
        <name>阿賀野川松浜橋ライブカメラ / Agano River Matsuhama Bridge live camera</name>
        <description><![CDATA[〒950-3126 新潟県新潟市北区松浜７丁目 県道 17 号線 松浜橋 「新潟県IT&ITS推進協議会」/ Matsuhamabashi, Prefectural Road No. 17, 7-chome, Matsuhama, Kita-ku, Niigata 950-3126, Niigata Prefecture "Niigata IT & ITS Promotion Council"<br>https://livecamera.fujiyamasan.com/niigata-agano-matsuhamabashi.html]]></description>
        <styleUrl>#icon-22</styleUrl>
        <Point>
          <coordinates>
            139.1343304,37.9508126,0
          </coordinates>
        </Point>
      </Placemark>
      <Placemark>
        <name>国道7号新潟競馬場インターチェンジライブカメラ / National Highway 7 Niigata Racecourse Interchange Live Camera</name>
        <description><![CDATA[〒950-3307 新潟県新潟市北区樋ノ入 競馬場IC 「新潟県IT&ITS推進協議会」/ Racecourse IC, Hinoiri, Kita-ku, Niigata-shi,  Niigata Prefecture 950-3307, Prefecture, "Niigata IT & ITS Promotion Council''<br>https://livecamera.fujiyamasan.com/niigata-keibajo-r7.html]]></description>
        <styleUrl>#icon-22</styleUrl>
        <Point>
          <coordinates>
            139.1835075,37.9422611,0
          </coordinates>
        </Point>
      </Placemark>
      <Placemark>
        <name>阿賀野川本所ライブカメラ / Agano River Honjo Live Camera</name>
        <description><![CDATA[新潟県新潟市東区本所 「阿賀野川河川事務所」/ Higashi-ku, Niigata City, Niigata Prefecture<br>"Agano River Office"<br>https://livecamera.fujiyamasan.com/niigata-agano-honjo.html]]></description>
        <styleUrl>#icon-22</styleUrl>
        <Point>
          <coordinates>
            139.1416945,37.9115906,0
          </coordinates>
        </Point>
      </Placemark>
      <Placemark>
        <name>国道7号海老ヶ瀬インターチェンジライブカメラ / National highway No. 7 Ebigase interchange interchange live camera</name>
        <description><![CDATA[〒950-0813 新潟県新潟市東区大形本町５丁目１９ 海老ヶ瀬インターチェンジ 「新潟国道事務所」/ Ebigase Interchange, 5-19 Ogatahoncho, Higashi-ku, Niigata City, Niigata Prefecture 950-0813, "Niigata National Highway Office"<br>https://livecamera.fujiyamasan.com/niigata-ebigaseic-r7.html]]></description>
        <styleUrl>#icon-22</styleUrl>
        <Point>
          <coordinates>
            139.126123,37.9219029,0
          </coordinates>
        </Point>
      </Placemark>
      <Placemark>
        <name>小阿賀野川寿橋ライブカメラ / Koaganogawa Kotobukibashi Live Camera</name>
        <description><![CDATA[新潟県新潟市江南区二本木 「新潟県河川防災情報システム」/ Nihongi, Konan Ward, Niigata City , Niigata Prefecture, "Niigata River Disaster Prevention Information System"<br>https://livecamera.fujiyamasan.com/niigata-konan-koagano-kotobukibashi.html]]></description>
        <styleUrl>#icon-22</styleUrl>
        <Point>
          <coordinates>
            139.1146815,37.8417946,0
          </coordinates>
        </Point>
      </Placemark>
      <Placemark>
        <name>信濃川酒屋ライブカメラ / Shinano River Sakaya Live Camera</name>
        <description><![CDATA[〒950-0324 新潟県新潟市江南区酒屋町 「	信濃川下流河川事務所」/  Sakaya Town, Konan Ward, Niigata City, Niigata Prefecture 950-0324, ``Shinano River Lower River Office''<br>https://livecamera.fujiyamasan.com/niigata-shinanogawa-sakaya.html]]></description>
        <styleUrl>#icon-22</styleUrl>
        <Point>
          <coordinates>
            139.0672769,37.8370132,0
          </coordinates>
        </Point>
      </Placemark>
      <Placemark>
        <name>信濃川鳥屋野潟排水機場ライブカメラ / Shinano River Toyanogata Drainage Pump Station Live Camera</name>
        <description><![CDATA[〒950-1146 新潟県新潟市江南区太右エ門新田 鳥屋野潟排水機場 「信濃川下流河川事務所」/  Toyanogata Drainage Pump Station, Taemonshinden, Konan-ku, Niigata City, Niigata Prefecture  950-1146, "Shinano River Downstream River Office"<br>https://livecamera.fujiyamasan.com/niigata-shinanogawa-tauemon.html]]></description>
        <styleUrl>#icon-22</styleUrl>
        <Point>
          <coordinates>
            139.0252133,37.8750553,0
          </coordinates>
        </Point>
      </Placemark>
      <Placemark>
        <name>国道49号茅野山ライブカメラ / National Road 49 Chinoyama Live Camera</name>
        <description><![CDATA[〒950-0144 新潟県新潟市江南区茅野山 「新潟国道事務所」/ Chinoyama, Konan-ku, Niigata City, Niigata Prefecture 950-0144, "Niigata National Road Office"<br>https://livecamera.fujiyamasan.com/niigata-chinoyama-r49.html]]></description>
        <styleUrl>#icon-22</styleUrl>
        <Point>
          <coordinates>
            139.1005897,37.8540064,0
          </coordinates>
        </Point>
      </Placemark>
      <Placemark>
        <name>阿賀野川横雲橋ライブカメラ / Agano River Oun Bridge Live Camera</name>
        <description><![CDATA[新潟県新潟市江南区横越 横雲橋 「阿賀野川河川事務所」/ Ohun Bridge, Yokogoshi, Konan-ku, Niigata City, Niigata Prefecture, "Agano River Office"<br>https://livecamera.fujiyamasan.com/niigata-agano-ohunbashi.html]]></description>
        <styleUrl>#icon-22</styleUrl>
        <Point>
          <coordinates>
            139.157251,37.848844,0
          </coordinates>
        </Point>
      </Placemark>
      <Placemark>
        <name>国道49号横越ライブカメラ / National highway No. 49 Yokogoshi live camera</name>
        <description><![CDATA[〒950-0204 新潟県新潟市江南区横越 「新潟国道事務所」/Yokogoshi, Konan-ku, Niigata City, Niigata Prefecture 950-0204,  ``Niigata National Road Office''<br>https://livecamera.fujiyamasan.com/niigata-yokogoshi-r49.html]]></description>
        <styleUrl>#icon-22</styleUrl>
        <Point>
          <coordinates>
            139.150695,37.8612258,0
          </coordinates>
        </Point>
      </Placemark>
      <Placemark>
        <name>能代川北上ライブカメラ / Nodai River Kitakami Live Camera</name>
        <description><![CDATA[〒956-0861 新潟県新潟市秋葉区北上３丁目 「新潟県河川防災情報システム」/ 3-chome, Kitakami, Akiha-ku, Niigata City, Niigata Prefecture 956-0861, "Niigata River Disaster Prevention Information System"<br>https://livecamera.fujiyamasan.com/niigata-akiha-kitakami-nodai-river.html]]></description>
        <styleUrl>#icon-22</styleUrl>
        <Point>
          <coordinates>
            139.1238758,37.8126613,0
          </coordinates>
        </Point>
      </Placemark>
      <Placemark>
        <name>能代川新津川分流点上流ライブカメラ / Nodaigawa Niitsugawa branch point upstream live camera</name>
        <description><![CDATA[〒956-0853 新潟県新潟市秋葉区飯柳 「新潟県河川防災情報システム」/ Iyanagi, Akiha-ku, Niigata City, Niigata Prefecture 956-0853 "Niigata Prefecture River Disaster Prevention Information System"<br>https://livecamera.fujiyamasan.com/niigata-akiha-iyanagi-nodai-river.html]]></description>
        <styleUrl>#icon-22</styleUrl>
        <Point>
          <coordinates>
            139.1537265,37.7890323,0
          </coordinates>
        </Point>
      </Placemark>
      <Placemark>
        <name>信濃川小須戸橋ライブカメラ / Shinano Kosudo Bridge Live Camera</name>
        <description><![CDATA[〒956-0101 新潟県新潟市秋葉区小須戸 小須戸橋 「新潟県IT&ITS推進協議会」/ Kosudo Bridge, Kosudo, Akiha-ku, Niigata City, Niigata Prefecture, 956-0101 "Niigata IT & ITS Promotion Council"<br>https://livecamera.fujiyamasan.com/niigata-shinano-kosudobashi.html]]></description>
        <styleUrl>#icon-22</styleUrl>
        <Point>
          <coordinates>
            139.0653796,37.7549796,0
          </coordinates>
        </Point>
      </Placemark>
      <Placemark>
        <name>信濃川大秋ライブカメラ / Shinano River Oaki Live Camera</name>
        <description><![CDATA[新潟県新潟市秋葉区大秋 「新潟県IT&ITS推進協議会」/ Oaki, Akiha-ku, Niigata City, Niigata Prefecture, "Niigata IT & ITS Promotion Council"<br>https://livecamera.fujiyamasan.com/niigata-shinano-ohaki.html]]></description>
        <styleUrl>#icon-22</styleUrl>
        <Point>
          <coordinates>
            139.067406,37.7975551,0
          </coordinates>
        </Point>
      </Placemark>
      <Placemark>
        <name>信濃川大郷橋ライブカメラ / Shinano River Daigo Bridge Live Camera</name>
        <description><![CDATA[〒956-0001 新潟県新潟市秋葉区覚路津 「新潟県IT&ITS推進協議会」/ Kakurodu, Akiha-ku, Niigata City, Niigata Prefecture 956-0001,<br>"Niigata IT & ITS Promotion Council"<br>https://livecamera.fujiyamasan.com/niigata-shinano-daigobashi.html]]></description>
        <styleUrl>#icon-22</styleUrl>
        <Point>
          <coordinates>
            139.0665626,37.8168724,0
          </coordinates>
        </Point>
      </Placemark>
      <Placemark>
        <name>阿賀野川金屋ライブカメラ / Agano River Kanaya Live Camera</name>
        <description><![CDATA[新潟県新潟市秋葉区金屋 「阿賀野川河川事務所」/ Kanaya, Akiha-ku, Niigata City, Niigata Prefecture, "Agano River Office"<br>https://livecamera.fujiyamasan.com/niigata-agano-kanaya.html]]></description>
        <styleUrl>#icon-22</styleUrl>
        <Point>
          <coordinates>
            139.1730304,37.7880718,0
          </coordinates>
        </Point>
      </Placemark>
      <Placemark>
        <name>阿賀野川満願寺ライブカメラ / Aganogawa Manganji live camera </name>
        <description><![CDATA[〒956-0811 新潟県新潟市秋葉区満願寺４１００ 国土交通省 北陸地方整備局 阿賀野川河川事務所 満願寺出張所 「阿賀野川河川事務所」/ Ministry of Land, Infrastructure, Transport and Tourism Hokuriku Regional Development Bureau Aganogawa River Office Manganji Branch Office, 4100 Manganji, Akiha-ku, Niigata City, Niigata Prefecture 956-0811, "Agano River Office"<br>https://livecamera.fujiyamasan.com/niigata-agano-manganji.html]]></description>
        <styleUrl>#icon-22</styleUrl>
        <Point>
          <coordinates>
            139.1531069,37.8235643,0
          </coordinates>
        </Point>
      </Placemark>
      <Placemark>
        <name>NTTルパルク新潟新津第1駐車場2ライブカメラ / NTT Le Parc Niigata Niitsu 1st Parking Lot 2 Live Camera</name>
        <description><![CDATA[新潟県新潟市秋葉区新津本町32-6 NTTルパルク新潟新津第1駐車場 「NTTルパルク」/ NTT Le Parc Niigata Niitsu 1st Parking Lot, 32-6 Niitsuhon-cho, Akiha-ku, Niigata City, Niigata Prefecture, "NTT Le Parc"]]></description>
        <styleUrl>#icon-22</styleUrl>
        <Point>
          <coordinates>
            139.1234177,37.7970276,0
          </coordinates>
        </Point>
      </Placemark>
      <Placemark>
        <name>JR新津駅発車時刻案内板ライブカメラ / JR Niitsu Station departure time guide live camera</name>
        <description><![CDATA[〒956-0864 新潟県新潟市秋葉区新津本町１丁目１ 新津駅 「東日本旅客鉄道新潟支社」/ Niitsu Station, 1-1 Niitsuhon-cho, Akiha-ku, Niigata City, Niigata Prefecture 956-0864,   "East Japan Passenger Railway Niigata Branch"<br>https://livecamera.fujiyamasan.com/niigata-jr-niitsueki.html]]></description>
        <styleUrl>#icon-22</styleUrl>
        <Point>
          <coordinates>
            139.1211489,37.800452,0
          </coordinates>
        </Point>
      </Placemark>
      <Placemark>
        <name>信濃川庄瀬ライブカメラ / Shinano River Shouze Live Camera</name>
        <description><![CDATA[新潟県新潟市南区庄瀬 「国土交通省河川情報センター」/ Shoze, Minami-ku, Niigata City, Niigata Prefecture, “Ministry of Land, Infrastructure, Transport and Tourism River Information Center”<br>https://livecamera.fujiyamasan.com/niigata-shinano-shoze.html]]></description>
        <styleUrl>#icon-22</styleUrl>
        <Point>
          <coordinates>
            139.0459287,37.7206205,0
          </coordinates>
        </Point>
      </Placemark>
      <Placemark>
        <name>信濃川小須戸橋左岸ライブカメラ / Shinano River Kosudo Bridge Left Bank Live Camera</name>
        <description><![CDATA[新潟県新潟市南区戸石 「新潟県IT&ITS推進協議会」/ Toishi, Minami-ku, Niigata City "Niigata IT & ITS Promotion Council"<br>https://livecamera.fujiyamasan.com/niigata-shinano-kosudobashi-2.html]]></description>
        <styleUrl>#icon-22</styleUrl>
        <Point>
          <coordinates>
            139.0648753,37.7545894,0
          </coordinates>
        </Point>
      </Placemark>
      <Placemark>
        <name>信濃川臼井橋ライブカメラ / Shinanogawa Usuibashi Live Camera</name>
        <description><![CDATA[新潟県新潟市南区臼井 臼井橋 「新潟県IT&ITS推進協議会」/ Usui Bridge, Usui, Minami-ku, Niigata City, Niigata Prefecture, "Niigata IT & ITS Promotion Council"<br>https://livecamera.fujiyamasan.com/niigata-shinano-usuibashi.html]]></description>
        <styleUrl>#icon-22</styleUrl>
        <Point>
          <coordinates>
            139.0579921,37.7827157,0
          </coordinates>
        </Point>
      </Placemark>
      <Placemark>
        <name>信濃川赤渋ライブカメラ / Shinano River Akashibu Live Camera</name>
        <description><![CDATA[新潟県新潟市南区赤渋 「 新潟県IT&ITS推進協議会」/ Akashibu, Minami-ku, Niigata City,   Niigata Prefecture, "Niigata IT & ITS Promotion Council"<br>https://livecamera.fujiyamasan.com/niigata-shinano-akashibu.html]]></description>
        <styleUrl>#icon-22</styleUrl>
        <Point>
          <coordinates>
            139.0565565,37.7887852,0
          </coordinates>
        </Point>
      </Placemark>
      <Placemark>
        <name>中ノ口川白根橋ライブカメラ / Nakanoguchi River Shiranebashi Live Camera</name>
        <description><![CDATA[新潟県新潟市南区白根 白根橋 「 新潟県IT&ITS推進協議会」/ Shirane Bridge, Shirane , Minami-ku, Niigata City, Niigata Prefecture, "Niigata IT & ITS Promotion Council"<br>https://livecamera.fujiyamasan.com/niigata-nakanokuchi-shiranebashi.html]]></description>
        <styleUrl>#icon-22</styleUrl>
        <Point>
          <coordinates>
            139.0111222,37.7638982,0
          </coordinates>
        </Point>
      </Placemark>
      <Placemark>
        <name>国道8号新飯田ライブカメラ / National highway No. 8 Niida live camera </name>
        <description><![CDATA[〒950-1455 新潟県新潟市南区新飯田「 新潟県IT&ITS推進協議会」/ Niida, Minami-ku, Niigata , Niigata Prefecture 950-1455, "Niigata IT & ITS Promotion Council"<br>https://livecamera.fujiyamasan.com/niigata-minamiku-niida-r8.html]]></description>
        <styleUrl>#icon-22</styleUrl>
        <Point>
          <coordinates>
            138.9873516,37.6962852,0
          </coordinates>
        </Point>
      </Placemark>
      <Placemark>
        <name>国道8号白根BP能登ライブカメラ / National highway No. 8 Shirane BP Noto live camera </name>
        <description><![CDATA[新潟県新潟市南区能登 「新潟県IT&ITS推進協議会」/ Noto, Minami-ku, Niigata City "Niigata IT & ITS Promotion Council"<br>https://livecamera.fujiyamasan.com/niigata-minamiku-noto-r8bp.html]]></description>
        <styleUrl>#icon-22</styleUrl>
        <Point>
          <coordinates>
            139.0161941,37.7691654,0
          </coordinates>
        </Point>
      </Placemark>
      <Placemark>
        <name>国道8号白根東町ライブカメラ / National highway No. 8 Shirane Higashi Town live camera</name>
        <description><![CDATA[〒950-1222 新潟県新潟市南区白根東町１丁目 「新潟県IT&ITS推進協議会」/, 1-chome, Shiranehigashi-cho, Minami-ku, Niigata 950-1222, Japan,  "Niigata Prefecture IT & ITS Promotion Council"]]></description>
        <styleUrl>#icon-22</styleUrl>
        <Point>
          <coordinates>
            139.0229479,37.7688509,0
          </coordinates>
        </Point>
      </Placemark>
      <Placemark>
        <name>国道8号中塩俵ライブカメラ / National highway No. 8 Nakashiodawara live camera</name>
        <description><![CDATA[新潟県新潟市南区中塩俵 「新潟県IT&ITS推進協議会」/,Nakashiodawara, Minami-ku, Niigata City, Niigata Prefecture, "Niigata IT & ITS Promotion Council"<br>https://livecamera.fujiyamasan.com/niigata-minamiku-nakashiodawara-r8.html]]></description>
        <styleUrl>#icon-22</styleUrl>
        <Point>
          <coordinates>
            139.0118393,37.8293481,0
          </coordinates>
        </Point>
      </Placemark>
      <Placemark>
        <name>中ノ口川金巻ライブカメラ / Nakanokuchi River Kanemaki Live Camera</name>
        <description><![CDATA[〒950-2037 新潟県新潟市西区大野 「新潟県河川防災情報システム」/ Ohno, Nishi-ku, Niigata , Niigata Prefecture 950-2037, "Niigata River Disaster Prevention Information System"<br>https://livecamera.fujiyamasan.com/niigata-nishiku-nakanokuchi-river.html]]></description>
        <styleUrl>#icon-22</styleUrl>
        <Point>
          <coordinates>
            138.9520326,37.8645455,0
          </coordinates>
        </Point>
      </Placemark>
      <Placemark>
        <name>信濃川新潟大堰ライブカメラ / Shinano River Niigata Ozeki Live Camera</name>
        <description><![CDATA[新潟県新潟市西区関屋 「信濃川下流河川事務所」/Sekiya, Nishi-ku, Niigata City, Niigata Prefecture,  "Shinano River Lower River Office"<br>https://livecamera.fujiyamasan.com/niigata-sekiya-ozeki.html]]></description>
        <styleUrl>#icon-22</styleUrl>
        <Point>
          <coordinates>
            139.002203,37.9086305,0
          </coordinates>
        </Point>
      </Placemark>
      <Placemark>
        <name>西川排水機場ライブカメラ / Nishikawa drainage pump live camera</name>
        <description><![CDATA[〒950-2023 新潟県新潟市西区小新１丁目１−１ 西川排水機場 「信濃川下流河川事務所」/ Nishikawa Drainage Pumping Station, 1-1 1-1 Koshin, Nishi-ku, Niigata City, 950-2023, Niigata Prefecture, "Shinano River Lower River Office"<br>https://livecamera.fujiyamasan.com/niigata-nishikawa.html]]></description>
        <styleUrl>#icon-22</styleUrl>
        <Point>
          <coordinates>
            139.0103716,37.8909023,0
          </coordinates>
        </Point>
      </Placemark>
      <Placemark>
        <name>西川小新ポンプ場ライブカメラ / Nishikawa small new pump station live camera</name>
        <description><![CDATA[〒950-2023 新潟県新潟市西区小新１５２９−１ 小新ポンプ場 「信濃川下流河川事務所」/ Koshin Pumping Station, 1529-1 Koshin, Nishi-ku, Niigata City, Niigata Prefecture 950-2023,  “Shinano River Lower River Office”<br>https://livecamera.fujiyamasan.com/niigata-nishikawa-koshin.html]]></description>
        <styleUrl>#icon-22</styleUrl>
        <Point>
          <coordinates>
            139.001112,37.8843025,0
          </coordinates>
        </Point>
      </Placemark>
      <Placemark>
        <name>西川小新排水機場ライブカメラ / Nishikawa small new drainage pumping station live camera</name>
        <description><![CDATA[〒950-2023 新潟県新潟市西区小新１９５９−１ 小新排水機場 「信濃川下流河川事務所」/ Koshin Drainage Pump Station , 1959-1 Koshin, Nishi-ku, Niigata City,  Niigata Prefecture 950-2023, "Shinano River Lower River Office"]]></description>
        <styleUrl>#icon-22</styleUrl>
        <Point>
          <coordinates>
            138.9932484,37.8785781,0
          </coordinates>
        </Point>
      </Placemark>
      <Placemark>
        <name>西川大曲ポンプ場ライブカメラ / Nishikawa Omagari Pump Station Live Camera</name>
        <description><![CDATA[〒950-2041 新潟県新潟市西区坂井東２丁目３−３０ 大曲ポンプ場 「信濃川下流河川事務所」/ Omagari Pumping Station, 2-3-30 Sakaihigashi, Nishi-ku, Niigata-shi,  Niigata  Prefecture 950-2041,  "Shinano River Lower River Office"<br>https://livecamera.fujiyamasan.com/niigata-nishikawa-omagari.html]]></description>
        <styleUrl>#icon-22</styleUrl>
        <Point>
          <coordinates>
            138.9831364,37.877843,0
          </coordinates>
        </Point>
      </Placemark>
      <Placemark>
        <name>西川新通排水機場ライブカメラ / Nishikawa Shindori drainage pumping station live camera</name>
        <description><![CDATA[〒950-2035 新潟県新潟市西区新通３８８４−２ 新通排水機場 「信濃川下流河川事務所」/ Shindori Drainage Station, 3884-2 Shindori, Nishi-ku, Niigata City, Niigata Prefecture 950-2035, "Shinano River Lower River Office"<br>https://livecamera.fujiyamasan.com/niigata-nishikawa-sindori.html]]></description>
        <styleUrl>#icon-22</styleUrl>
        <Point>
          <coordinates>
            138.9631373,37.8666844,0
          </coordinates>
        </Point>
      </Placemark>
      <Placemark>
        <name>信濃川善久ライブカメラ / Shinano River Zenku Live Camera</name>
        <description><![CDATA[〒950-1102 新潟県新潟市西区善久 「新潟県IT&ITS推進協議会」/ Zenku, Nishi-ku, Niigata City, Niigata Prefecture 950-1102, ``Niigata IT & ITS Promotion Council''<br>https://livecamera.fujiyamasan.com/niigata-shinano-zenku.html]]></description>
        <styleUrl>#icon-22</styleUrl>
        <Point>
          <coordinates>
            139.0170411,37.8591392,0
          </coordinates>
        </Point>
      </Placemark>
      <Placemark>
        <name>信濃川山田ライブカメラ / Shinano River Yamada Live Camera</name>
        <description><![CDATA[〒950-1101 新潟県新潟市西区山田 「新潟県IT&ITS推進協議会」/ Yamada, Nishi-ku, Niigata City, Niigata Prefecture 950-1101, ``Niigata IT & ITS Promotion Council''<br>https://livecamera.fujiyamasan.com/niigata-shinano-yamada.html]]></description>
        <styleUrl>#icon-22</styleUrl>
        <Point>
          <coordinates>
            139.0180294,37.869912,0
          </coordinates>
        </Point>
      </Placemark>
      <Placemark>
        <name>信濃川平成大橋ライブカメラ / Shinano River Heisei Ohashi Live Camera</name>
        <description><![CDATA[〒950-1101 新潟県新潟市西区山田 平成大橋 「新潟県IT&ITS推進協議会」/ Heisei Ohashi, Yamada Nishi-ku, Niigata City, Niigata Prefecture, 950-1101 ``Niigata IT & ITS Promotion Council''https://livecamera.fujiyamasan.com/niigata-shinano-heiseiohashi.html]]></description>
        <styleUrl>#icon-22</styleUrl>
        <Point>
          <coordinates>
            139.0153571,37.8829018,0
          </coordinates>
        </Point>
      </Placemark>
      <Placemark>
        <name>五十嵐浜ライブカメラ / Igarashi Beach Live Camera</name>
        <description><![CDATA[新潟県新潟市西区五十嵐二の町 「新潟県IT&ITS推進協議会」/ Igarashi 2 Town,  Nishi Ward,  Niigata City, Niigata Prefecture, "Niigata IT & ITS Promotion Council"<br>https://livecamera.fujiyamasan.com/niigata-igarashihama.html]]></description>
        <styleUrl>#icon-22</styleUrl>
        <Point>
          <coordinates>
            138.9320603,37.8737375,0
          </coordinates>
        </Point>
      </Placemark>
      <Placemark>
        <name>小針浜海水浴場ライブカメラ / Kobarihama Beach Live Camera</name>
        <description><![CDATA[〒950-2076 新潟県新潟市西区上新栄町 小針浜海水浴場 「新潟県IT&ITS推進協議会」/  Koibarihama Beach, Kamishinei-cho, Nishi-ku, Niigata-shi, Niigata Prefecture 950-2076, "Niigata IT & ITS Promotion Council"<br>https://livecamera.fujiyamasan.com/niigata-kobarihama.html]]></description>
        <styleUrl>#icon-22</styleUrl>
        <Point>
          <coordinates>
            138.978363,37.8957824,0
          </coordinates>
        </Point>
      </Placemark>
      <Placemark>
        <name>国道116号高山インターチェンジライブカメラ / National highway No. 116 Takayama interchange live camera</name>
        <description><![CDATA[〒950-2035 新潟県新潟市西区新通 高山IC 「新潟県IT&ITS推進協議会」/ Takayama IC,  Shindori  Nishi-ku, Niigata City, Niigata Prefecture 950-2035, "Niigata IT&ITS Promotion Council"<br>https://livecamera.fujiyamasan.com/niigata-r116-takayamaic.html]]></description>
        <styleUrl>#icon-22</styleUrl>
        <Point>
          <coordinates>
            138.9513479,37.8483725,0
          </coordinates>
        </Point>
      </Placemark>
      <Placemark>
        <name>国道116号新潟西インターチェンジライブカメラ / National highway No. 116 Niigata West interchange live camera</name>
        <description><![CDATA[新潟県新潟市西区立仏110 「新潟国道事務所」/ 110 Tachibotoke, Nishi-ku, Niigata Niigata Prefecture, "Niigata National Highway Office"<br>https://livecamera.fujiyamasan.com/niigata-r116-tachibotoke.html]]></description>
        <styleUrl>#icon-22</styleUrl>
        <Point>
          <coordinates>
            139.0063728,37.8703806,0
          </coordinates>
        </Point>
      </Placemark>
      <Placemark>
        <name>国道116号亀貝インターチェンジライブカメラ / National highway No. 116 Kamegai interchange live camera</name>
        <description><![CDATA[〒950-2033 新潟県新潟市西区亀貝 亀貝IC 「新潟国道事務所」/  Kamegai IC, Kamegai, Nishi-ku, Niigata-shi,  Niigata Prefecture 950-2033, ``Niigata National Highway Office''<br>https://livecamera.fujiyamasan.com/niigata-r116-kamegai.html]]></description>
        <styleUrl>#icon-22</styleUrl>
        <Point>
          <coordinates>
            138.9811113,37.8629348,0
          </coordinates>
        </Point>
      </Placemark>
      <Placemark>
        <name>国道8号黒埼インターチェンジライブカメラ / National highway No. 8 Kurosaki interchange live camera</name>
        <description><![CDATA[新潟県新潟市西区木場「NEXCO東日本」/ Kiba, Nishi-ku, Niigata City, Niigata Prefecture "NEXCO East Japan"<br>https://livecamera.fujiyamasan.com/niigata-r8-kurosaki.html]]></description>
        <styleUrl>#icon-22</styleUrl>
        <Point>
          <coordinates>
            138.9774699,37.8171782,0
          </coordinates>
        </Point>
      </Placemark>
      <Placemark>
        <name>新川新川水位観測所ライブカメラ / Shinkawa Shinkawa Water Level Observatory Live Camera</name>
        <description><![CDATA[新潟県新潟市西蒲区升岡新田 「新潟県河川防災情報システム」/ Masuokashinden, Nishikan Ward, Niigata City, Niigata Prefecture, "Niigata River Disaster Prevention Information System"<br>https://livecamera.fujiyamasan.com/niigata-shinkawa-masuoka.html]]></description>
        <styleUrl>#icon-22</styleUrl>
        <Point>
          <coordinates>
            138.9603435,37.814353,0
          </coordinates>
        </Point>
      </Placemark>
      <Placemark>
        <name>国道116号巻中央ICライブカメラ / National Route 116 Central IC Live Camera</name>
        <description><![CDATA[新潟県新潟市西蒲区赤鏥 巻中央I.C 「新潟県IT&ITS推進協議会」/ Maki Central I.C., Akasabi, Nishikan-ku, Niigata City,  Niigata Prefecture 953-0041, Japan, "Niigata Prefecture IT&ITS Promotion Council, I.C"<br>https://livecamera.fujiyamasan.com/niigata-r116-makichuoic.html]]></description>
        <styleUrl>#icon-22</styleUrl>
        <Point>
          <coordinates>
            138.9012404,37.753647,0
          </coordinates>
        </Point>
      </Placemark>
      <Placemark>
        <name>国道116号善光寺ライブカメラ / National highway No. 116 Zenkoji live camera</name>
        <description><![CDATA[新潟県新潟市西蒲区善光寺 「新潟県IT&ITS推進協議会」/ Zenkoji, Niigata City Niigata Zenkoji "Niigata IT & ITS Promotion Council"<br>https://livecamera.fujiyamasan.com/niigata-r116-zenkoji.html]]></description>
        <styleUrl>#icon-22</styleUrl>
        <Point>
          <coordinates>
            138.9500035,37.8009962,0
          </coordinates>
        </Point>
      </Placemark>
      <Placemark>
        <name>坂井川坂井川水位観測所ライブカメラ / Sakai River Sakai River Water Observatory Live Camera</name>
        <description><![CDATA[新潟県新発田市下中江「新潟県河川防災情報システム」/ Shimonakae, Shibata City, Niigata Prefecture "Niigata Prefecture River Disaster Prevention Information System"<br>https://livecamera.fujiyamasan.com/niigata-shibata-sakaigawa.html]]></description>
        <styleUrl>#icon-22</styleUrl>
        <Point>
          <coordinates>
            139.3833776,37.9541334,0
          </coordinates>
        </Point>
      </Placemark>
      <Placemark>
        <name>中田川新富町ライブカメラ / Nakatagawa Shintomicho Live Camera</name>
        <description><![CDATA[新潟県新発田市新富町 「新潟県河川防災情報システム」/ Shintomi Town, Shibata City, Niigata Prefecture, "Niigata River Disaster Prevention Information System"<br>https://livecamera.fujiyamasan.com/niigata-nakatagawa-shintomi.html]]></description>
        <styleUrl>#icon-22</styleUrl>
        <Point>
          <coordinates>
            139.3395515,37.9541129,0
          </coordinates>
        </Point>
      </Placemark>
      <Placemark>
        <name>加治川小松ライブカメラ / Kajikawa Komatsu Live Camera</name>
        <description><![CDATA[新潟県新発田市上小松 「新潟県河川防災情報システム」/ Kamikomatsu, Shibata City, Niigata Prefecture, "Niigata Prefecture River Disaster Prevention Information System"<br>https://livecamera.fujiyamasan.com/niigata-kajigawa-komatsu.html]]></description>
        <styleUrl>#icon-22</styleUrl>
        <Point>
          <coordinates>
            139.3557104,37.9636637,0
          </coordinates>
        </Point>
      </Placemark>
      <Placemark>
        <name>加治川岡田ライブカメラ / Kajikawa Okada Live Camera</name>
        <description><![CDATA[新潟県新発田市岡田 「新潟県河川防災情報システム」/ Okada, Shibata City, Niigata Prefecture, "Niigata Prefecture River Disaster Prevention Information System"<br>https://livecamera.fujiyamasan.com/niigata-kajigawa-okada.html]]></description>
        <styleUrl>#icon-22</styleUrl>
        <Point>
          <coordinates>
            139.3655118,37.9491511,0
          </coordinates>
        </Point>
      </Placemark>
      <Placemark>
        <name>国道7号金塚ライブカメラ / National highway No. 7 Kanazuka live camera</name>
        <description><![CDATA[新潟県新発田市下小中山 「新潟県IT&ITS推進協議会」/ Shimokonakayama, Shibata City, Niigata Prefecture "Niigata IT & ITS Promotion Council"<br>https://livecamera.fujiyamasan.com/niigata-r7-shimokonakayama.html]]></description>
        <styleUrl>#icon-22</styleUrl>
        <Point>
          <coordinates>
            139.3816427,38.0209591,0
          </coordinates>
        </Point>
      </Placemark>
      <Placemark>
        <name>国道7号城北ライブカメラ / National highway No. 7 Johoku live camera</name>
        <description><![CDATA[〒957-0051 新潟県新発田市城北町 「新潟県IT&ITS推進協議会」/ Johoku Town, Shibata City, Niigata Prefecture 957-0051, "Niigata IT & ITS Promotion Council''<br>https://livecamera.fujiyamasan.com/niigata-r7-johoku.html]]></description>
        <styleUrl>#icon-22</styleUrl>
        <Point>
          <coordinates>
            139.3235301,37.959903,0
          </coordinates>
        </Point>
      </Placemark>
      <Placemark>
        <name>国道7号新発田インターチェンジライブカメラ / National highway No. 7 Shibata interchange live camera</name>
        <description><![CDATA[〒957-0064 新潟県新発田市奥山新保２丁目４ 新発田IC 「新潟国道事務所」/ Shibata IC, 2-4 Okuyama Shinpo, Shibata City, Niigata Prefecture 957-0064, "Niigata National Road Office"<br>https://livecamera.fujiyamasan.com/niigata-r7-shibataic.html]]></description>
        <styleUrl>#icon-22</styleUrl>
        <Point>
          <coordinates>
            139.295381,37.9556944,0
          </coordinates>
        </Point>
      </Placemark>
      <Placemark>
        <name>門前川山辺里ライブカメラ / Monzen River Saberi Live Camera</name>
        <description><![CDATA[新潟県村上市山辺里 「新潟県河川防災情報システム」/ Saberi, Murakami City, Niigata Prefecture,  "Niigata River Disaster Prevention Information System"<br>https://livecamera.fujiyamasan.com/niigata-monzen-saberi.html]]></description>
        <styleUrl>#icon-22</styleUrl>
        <Point>
          <coordinates>
            139.4924569,38.2288635,0
          </coordinates>
        </Point>
      </Placemark>
      <Placemark>
        <name>三面川泉町ライブカメラ / Miomote River Izumicho Live Camera</name>
        <description><![CDATA[新潟県村上市泉町 「新潟県河川防災情報システム」/ Izumi-cho, Murakami City, Niigata Prefecture, "Niigata Prefecture River Disaster Prevention Information System"<br>https://livecamera.fujiyamasan.com/izumi-miomote-river.html]]></description>
        <styleUrl>#icon-22</styleUrl>
        <Point>
          <coordinates>
            139.4777555,38.2298369,0
          </coordinates>
        </Point>
      </Placemark>
      <Placemark>
        <name>三面川宮ノ下ライブカメラ / Miomote River Miyanoshita Live Camera</name>
        <description><![CDATA[新潟県村上市宮ノ下 「新潟県河川防災情報システム」/ Miyanoshita, Murakami City, Niigata Prefecture "Niigata River Disaster Prevention Information System"<br>https://livecamera.fujiyamasan.com/miyanoshita-miomote-river.html]]></description>
        <styleUrl>#icon-22</styleUrl>
        <Point>
          <coordinates>
            139.4989788,38.2580067,0
          </coordinates>
        </Point>
      </Placemark>
      <Placemark>
        <name>高根川早稲田ライブカメラ / Takanegawa Waseda Live Camera</name>
        <description><![CDATA[新潟県村上市早稲田 「新潟県河川防災情報システム」/  Waseda, Murakami City, Niigata Prefecture, "Niigata River Disaster Prevention Information System"]]></description>
        <styleUrl>#icon-22</styleUrl>
        <Point>
          <coordinates>
            139.5477254,38.307978,0
          </coordinates>
        </Point>
      </Placemark>
      <Placemark>
        <name>荒川荒島ライブカメラ / Arakawa Arashima live camera</name>
        <description><![CDATA[新潟県村上市花立 「国土交通省河川情報センター」/ Hanadate, Murakami City, Niigata Prefecture, "Ministry of Land, Infrastructure, Transport and Tourism River Information Center"<br>https://livecamera.fujiyamasan.com/niigata-murakami-hanadate-arakawa.html]]></description>
        <styleUrl>#icon-22</styleUrl>
        <Point>
          <coordinates>
            139.4838945,38.1098288,0
          </coordinates>
        </Point>
      </Placemark>
      <Placemark>
        <name>荒川佐々木ライブカメラ / Arakawa Sasaki Live Camera</name>
        <description><![CDATA[新潟県村上市佐々木「国土交通省河川情報センター」/ Sasaki, Murakami City, Niigata Prefecture, "Ministry of Land, Infrastructure, Transport and Tourism River Information Center"<br> https://livecamera.fujiyamasan.com/niigata-murakami-sasaki-arakawa.html]]></description>
        <styleUrl>#icon-22</styleUrl>
        <Point>
          <coordinates>
            139.4672069,38.1235467,0
          </coordinates>
        </Point>
      </Placemark>
      <Placemark>
        <name>日本海東北自動車道朝日まほろばインターチェンジライブカメラ / Nihonkai Tohoku Expressway Asahi Mahoroba interchange live camera</name>
        <description><![CDATA[〒958-0261 新潟県村上市猿沢８３９ 朝日まほろばIC 「新潟県IT&ITS推進協議会」/  Asahi  Mahoroba IC, 839 Saruzawa, Murakami City, Niigata Prefecture 958-0261, "Niigata IT & ITS Promotion Council"<br>https://livecamera.fujiyamasan.com/niigata-murakami-mahorobaic.html]]></description>
        <styleUrl>#icon-22</styleUrl>
        <Point>
          <coordinates>
            139.5216242,38.277237,0
          </coordinates>
        </Point>
      </Placemark>
      <Placemark>
        <name>日本海東北自動車道山元トンネルライブカメラ / Sea of Japan Tohoku Expressway Yamamoto Tunnel Live Camera</name>
        <description><![CDATA[新潟県村上市志田平 「新潟県IT&ITS推進協議会」/ Shidanohira, Murakami City, Niigata Prefecture, "Niigata IT & ITS Promotion Council"<br>https://livecamera.fujiyamasan.com/niigata-murakami-yamamototunnel.html]]></description>
        <styleUrl>#icon-22</styleUrl>
        <Point>
          <coordinates>
            139.4659055,38.2032982,0
          </coordinates>
        </Point>
      </Placemark>
      <Placemark>
        <name>国道345号寒川ライブカメラ / National highway No. 345 Samukawa live camera</name>
        <description><![CDATA[新潟県村上市寒川 「新潟県IT&ITS推進協議会」/ Samukawa, Murakami City, Niigata Prefecture "Niigata IT & ITS Promotion Council"]]></description>
        <styleUrl>#icon-22</styleUrl>
        <Point>
          <coordinates>
            139.4909782,38.4502305,0
          </coordinates>
        </Point>
      </Placemark>
      <Placemark>
        <name>荒川花立水位観測所ライブカメラ / Arakawa Hanadate Water Observatory Live Camera</name>
        <description><![CDATA[〒959-3434 新潟県村上市小岩内 「羽越河川国道事務所」/ Koiwauchi, Murakami City, Niigata Prefecture 959-3434, ``Uetsu River National Highway Office''<br>https://livecamera.fujiyamasan.com/niigata-murakami-iiwauchi-arakawa.html]]></description>
        <styleUrl>#icon-22</styleUrl>
        <Point>
          <coordinates>
            139.492902,38.1144839,0
          </coordinates>
        </Point>
      </Placemark>
      <Placemark>
        <name>荒川葛籠山ライブカメラ / Arakawa River Tsudurayama Live Camera</name>
        <description><![CDATA[新潟県村上市葛籠山 「羽越河川国道事務所」/ Tsudurayama, Murakami City, Niigata Prefecture "Uetsu River National Highway Office"<br>https://livecamera.fujiyamasan.com/niigata-murakami-tsudurayama-arakawa.html]]></description>
        <styleUrl>#icon-22</styleUrl>
        <Point>
          <coordinates>
            139.4750955,38.1348152,0
          </coordinates>
        </Point>
      </Placemark>
      <Placemark>
        <name>荒川河口ライブカメラ / Arakawa river mouth live camera</name>
        <description><![CDATA[〒959-3441 新潟県村上市塩谷 「羽越河川国道事務所」/ Shioya, Murakami City, Niigata Prefecture 959-3441, "Uetsu River National Highway Office"<br>https://livecamera.fujiyamasan.com/niigata-murakami-shioya-arakawa.html]]></description>
        <styleUrl>#icon-22</styleUrl>
        <Point>
          <coordinates>
            139.4176758,38.1571976,0
          </coordinates>
        </Point>
      </Placemark>
      <Placemark>
        <name>日本海東北自動車道牛屋ライブカメラ / Nihonkai Tohoku Expressway Ushiya Live Camera</name>
        <description><![CDATA[新潟県村上市牛屋 「新潟県IT&ITS推進協議会」/ Ushiya, Murakami City, Niigata Prefecture "Niigata IT & ITS Promotion Council"<br>https://livecamera.fujiyamasan.com/niigata-murakami-ushiya-nihonkai-tohoku-expressway.html]]></description>
        <styleUrl>#icon-22</styleUrl>
        <Point>
          <coordinates>
            139.4421795,38.1535085,0
          </coordinates>
        </Point>
      </Placemark>
      <Placemark>
        <name>村上市役所お城山ライブカメラ / Murakami City Office Shiroyama Live Camera</name>
        <description>〒958-8501 新潟県村上市三之町１−１ 村上市役所 / Murakami City Hall 1-1, Sannomachi, Murakami City, Niigata Prefecture, 958-8501</description>
        <styleUrl>#icon-22</styleUrl>
        <Point>
          <coordinates>
            139.4800042,38.2239568,0
          </coordinates>
        </Point>
      </Placemark>
      <Placemark>
        <name>国道7号伊呉野ライブカメラ / National highway No. 7 Igureno live camera</name>
        <description><![CDATA[〒959-3901 新潟県村上市伊呉野 「新潟国道事務所」/ Igureno, Murakami City, Niigata Prefecture 959-3901,  "Niigata National Highway Office"<br>https://livecamera.fujiyamasan.com/niigata-murakami-igureno-r7.html]]></description>
        <styleUrl>#icon-22</styleUrl>
        <Point>
          <coordinates>
            139.5492658,38.5521867,0
          </coordinates>
        </Point>
      </Placemark>
      <Placemark>
        <name>国道7号下大鳥ライブカメラ / National Highway No. 7 Shimootori Live Camera</name>
        <description><![CDATA[新潟県村上市下大鳥 「新潟国道事務所」/ Shimo-Otori, Murakami City, Niigata Prefecture "Niigata National Highway Office"<br>https://livecamera.fujiyamasan.com/niigata-murakami-shimootori-r7.html]]></description>
        <styleUrl>#icon-22</styleUrl>
        <Point>
          <coordinates>
            139.5551302,38.4757641,0
          </coordinates>
        </Point>
      </Placemark>
      <Placemark>
        <name>国道7号大沢ライブカメラ / National highway No. 7 Osawa live camera</name>
        <description><![CDATA[新潟県村上市大沢 「新潟国道事務所」/ Osawa,  Murakami City, Niigata Prefecture, "Niigata National Highway Office"<br>https://livecamera.fujiyamasan.com/niigata-murakami-osawa-r7.html]]></description>
        <styleUrl>#icon-22</styleUrl>
        <Point>
          <coordinates>
            139.5785432,38.4120453,0
          </coordinates>
        </Point>
      </Placemark>
      <Placemark>
        <name>国道7号潟端ライブカメラ / National highway No. 7 Katabata live camera</name>
        <description><![CDATA[〒959-3448 新潟県村上市潟端 「新潟国道事務所」/ Katabata, Murakami City, Niigata Prefecture 959-3448, ``Niigata National Highway Office''<br>https://livecamera.fujiyamasan.com/niigata-murakami-katabata-r7.html]]></description>
        <styleUrl>#icon-22</styleUrl>
        <Point>
          <coordinates>
            139.458544,38.1921332,0
          </coordinates>
        </Point>
      </Placemark>
      <Placemark>
        <name>国道7号大須戸ライブカメラ / National highway No. 7 Osudo live camera</name>
        <description><![CDATA[新潟県村上市大須戸 「新潟国道事務所」/ Osudo, Murakami City, Niigata Prefecture<br>"Niigata National Highway Office"<br>https://livecamera.fujiyamasan.com/niigata-murakami-osudo-r7.html]]></description>
        <styleUrl>#icon-22</styleUrl>
        <Point>
          <coordinates>
            139.5441442,38.3698451,0
          </coordinates>
        </Point>
      </Placemark>
      <Placemark>
        <name>日本海東北自動車道天神岡ライブカメラ / Sea of Japan Tohoku Expressway Tenjinoka Live Camera</name>
        <description><![CDATA[新潟県村上市天神岡 「新潟県IT&ITS推進協議会」/ Tenjinoka, Murakami City, Niigata Prefecture, "Niigata IT & ITS Promotion Council"<br>https://livecamera.fujiyamasan.com/niigata-tohoku-tenjinoka.html]]></description>
        <styleUrl>#icon-22</styleUrl>
        <Point>
          <coordinates>
            139.5053023,38.2353006,0
          </coordinates>
        </Point>
      </Placemark>
      <Placemark>
        <name>大通川放水路ケラ島堰ライブカメラ / Odori River Floodway Kerajima Weir Live Camera</name>
        <description><![CDATA[新潟県燕市雀森 「新潟県河川防災情報システム」/ Tsubamemori, Tsubame City, Niigata Prefecture "Niigata Prefecture River Disaster Prevention Information System"]]></description>
        <styleUrl>#icon-22</styleUrl>
        <Point>
          <coordinates>
            138.9195262,37.6993245,0
          </coordinates>
        </Point>
      </Placemark>
      <Placemark>
        <name>大通川放水路大通川水門ライブカメラ / Odori River Floodway Odori River Sluice Live Camera</name>
        <description><![CDATA[新潟県燕市雀森 「新潟県河川防災情報システム」/ Tsubamemori, Tsubame City, Niigata Prefecture, "Niigata Prefecture River Disaster Prevention Information System"]]></description>
        <styleUrl>#icon-22</styleUrl>
        <Point>
          <coordinates>
            138.9200756,37.6999351,0
          </coordinates>
        </Point>
      </Placemark>
      <Placemark>
        <name>中ノ口川道金ライブカメラ / Nakanoguchi River Dokin Live Camera</name>
        <description><![CDATA[〒959-1265 新潟県燕市道金  「新潟県河川防災情報システム」/ Dokin, Tsubame City, Niigata Prefecture 959-1265, "Niigata River Disaster Prevention Information System"]]></description>
        <styleUrl>#icon-22</styleUrl>
        <Point>
          <coordinates>
            138.9178355,37.6349675,0
          </coordinates>
        </Point>
      </Placemark>
      <Placemark>
        <name>燕市産業史料館中ノ口川ライブカメラ / Tsubame City Industrial History Museum Nakanoguchi River Live Camera</name>
        <description>〒959-1263 新潟県燕市大曲４３３０−１ 燕市産業史料館 / 4330-1, Omagari, Tsubame City, Niigata Prefecture 959-1263 Tsubame City Industrial History Museum</description>
        <styleUrl>#icon-22</styleUrl>
        <Point>
          <coordinates>
            138.919169,37.652754,0
          </coordinates>
        </Point>
      </Placemark>
      <Placemark>
        <name>燕市立吉田中学校弥彦山ライブカメラ / Tsubame City Yoshida Junior High School Yahikoyama Live Camera</name>
        <description><![CDATA[〒959-0266 新潟県燕市吉田文京町１−１ 燕市立吉田中学校 「燕市役所」/ 1-1, Yoshida Bunkyo-cho, Tsubame-shi, Niigata 959-0266, Japan Tsubame City Yoshida Junior High School "Tsubame City Hall"]]></description>
        <styleUrl>#icon-22</styleUrl>
        <Point>
          <coordinates>
            138.879773,37.702548,0
          </coordinates>
        </Point>
      </Placemark>
      <Placemark>
        <name>燕市体育センター燕市交通公園ライブカメラ / Tsubame City Athletic Center Tsubame City Traffic Park Live Camera</name>
        <description><![CDATA[〒959-1263 新潟県燕市大曲３３７５ 燕市交通公園 「燕市役所」/ Tsubame City Traffic Park,  3375 Omagari, Tsubame City, Niigata Prefecture 959-1263,  "Tsubame City Hall"]]></description>
        <styleUrl>#icon-22</styleUrl>
        <Point>
          <coordinates>
            138.922382,37.6476978,0
          </coordinates>
        </Point>
      </Placemark>
      <Placemark>
        <name>信濃川蒲原大堰下流ライブカメラ / Shinano River Kambara Oyan downstream live camera</name>
        <description><![CDATA[〒959-1265 新潟県燕市道金 国土交通省 中ノ口川水門 蒲原大堰管理所 「信濃川下流河川事務所」/ Dokin, Tsubame City, Niigata Prefecture 959-1265, "Ministry of Land, Infrastructure and Transport"<br>https://livecamera.fujiyamasan.com/niigata-shinano-kanbaraozeki.html]]></description>
        <styleUrl>#icon-22</styleUrl>
        <Point>
          <coordinates>
            138.918797,37.631428,0
          </coordinates>
        </Point>
      </Placemark>
      <Placemark>
        <name>信濃川河川事務所大河津出張所ライブカメラ / Shinano River Office Okawatsu Branch Live Camera</name>
        <description>〒959-0123 新潟県燕市大川津 国土交通省 北陸地方整備局 信濃川河川事務所 大河津出張所 / Okawatsu Branch Office, Shinanogawa River Office, Hokuriku Regional Development Bureau, Ministry of Land, Infrastructure, Transport and Tourism, Okawazu, Tsubame City, Niigata Prefecture 959-0123, Japan </description>
        <styleUrl>#icon-22</styleUrl>
        <Point>
          <coordinates>
            138.8418057,37.6072992,0
          </coordinates>
        </Point>
      </Placemark>
      <Placemark>
        <name>大河津分水路洗堰下流左岸ライブカメラ / Live camera on the left bank on the downstream side of Okawazu diversion weir</name>
        <description><![CDATA[〒959-0123 新潟県燕市大川津 「信濃川河川事務所」/ Okawatsu, Tsubame City, Niigata Prefecture 959-0123 "Shinano River Office"]]></description>
        <styleUrl>#icon-22</styleUrl>
        <Point>
          <coordinates>
            138.8470587,37.6130998,0
          </coordinates>
        </Point>
      </Placemark>
      <Placemark>
        <name>大河津分水路可動堰下流右岸ライブカメラ / Okawazu watershed movable weir downstream right bank live camera</name>
        <description><![CDATA[〒959-0124 新潟県燕市五千石 「信濃川河川事務所」/ Gosenkoku, Tsubame City, Niigata Prefecture, 959-0124, "Shinanogawa River Office,"]]></description>
        <styleUrl>#icon-22</styleUrl>
        <Point>
          <coordinates>
            138.8406676,37.6200683,0
          </coordinates>
        </Point>
      </Placemark>
      <Placemark>
        <name>信濃川万盛橋ライブカメラ / Shinano River Bansei Bridge Live Camera</name>
        <description><![CDATA[〒959-0112 新潟県燕市熊森 「新潟県IT&ITS推進協議会」/ Kumamori, Tsubame City, Niigata Prefecture, 959-0112, "Niigata IT & ITS Promotion Council"]]></description>
        <styleUrl>#icon-22</styleUrl>
        <Point>
          <coordinates>
            138.8680093,37.6276679,0
          </coordinates>
        </Point>
      </Placemark>
      <Placemark>
        <name>信濃川横田ライブカメラ / Shinano River Yokota Live Camera</name>
        <description><![CDATA[〒959-0111 新潟県燕市横田 「新潟県IT&ITS推進協議会」/ Yokota, Tsubame City, Niigata Prefecture, 959-0111, "Niigata IT & ITS Promotion Council'']]></description>
        <styleUrl>#icon-22</styleUrl>
        <Point>
          <coordinates>
            138.8880227,37.6315416,0
          </coordinates>
        </Point>
      </Placemark>
      <Placemark>
        <name>中ノ口川道金左岸ライブカメラ / Nakanoguchi River Road Left Bank Live Camera</name>
        <description><![CDATA[〒959-1264 新潟県燕市八王寺 「新潟県IT&ITS推進協議会」/ Hachioji, Tsubame City, Niigata Prefecture 959-1264 ``Niigata IT & ITS Promotion Council'']]></description>
        <styleUrl>#icon-22</styleUrl>
        <Point>
          <coordinates>
            138.9237198,37.6399434,0
          </coordinates>
        </Point>
      </Placemark>
      <Placemark>
        <name>国道116号見晴橋ライブカメラ / National highway No. 116 Miharashi live camera</name>
        <description><![CDATA[新潟県燕市吉田 「新潟県IT&ITS推進協議会」/ Yoshida, Tsubame City, Niigata Prefecture "Niigata IT & ITS Promotion Council"]]></description>
        <styleUrl>#icon-22</styleUrl>
        <Point>
          <coordinates>
            138.8860057,37.6919382,0
          </coordinates>
        </Point>
      </Placemark>
      <Placemark>
        <name>国道116号新橋ライブカメラ / National highway No. 116 Shimbashi live camera</name>
        <description><![CDATA[新潟県燕市粟生津 「新潟県IT&ITS推進協議会」/ Aowazu, Tsubame City, Niigata Prefecture<br>"Niigata IT & ITS Promotion Council"]]></description>
        <styleUrl>#icon-22</styleUrl>
        <Point>
          <coordinates>
            138.8713554,37.6403776,0
          </coordinates>
        </Point>
      </Placemark>
      <Placemark>
        <name>滝谷川御手洗橋ライブカメラ / Takiya River Mitarai Bridge Live Camera</name>
        <description><![CDATA[新潟県五泉市中島 「新潟県河川防災情報システム」/ Nakajima, Gosen City, Niigata Prefecture "Niigata River Disaster Prevention Information System"<br>https://livecamera.fujiyamasan.com/niigata-gosen-takiya-river-mitaraibashi.html]]></description>
        <styleUrl>#icon-22</styleUrl>
        <Point>
          <coordinates>
            139.1811932,37.6763588,0
          </coordinates>
        </Point>
      </Placemark>
      <Placemark>
        <name>滝谷川滝谷川水位局ライブカメラ / Takitani River Takitani River Water Level Live Camera</name>
        <description><![CDATA[〒959-1704 新潟県五泉市村松甲 「新潟県河川防災情報システム」/ Muramatsu Ko,  Gosen city,  Niigata prefecture 959-1704, "Niigata River Disaster Prevention Information System"<br>https://livecamera.fujiyamasan.com/niigata-gosen-muramatsu-takiya-river.html]]></description>
        <styleUrl>#icon-22</styleUrl>
        <Point>
          <coordinates>
            139.1783139,37.6848654,0
          </coordinates>
        </Point>
      </Placemark>
      <Placemark>
        <name>早出川不動堂ライブカメラ / Hayadegawa Fudodo Live Camera</name>
        <description><![CDATA[新潟県五泉市不動堂 「新潟県河川防災情報システム」/ Fudodo, Gosen City, Niigata Prefecture "Niigata Prefecture River Disaster Prevention Information System"<br>https://livecamera.fujiyamasan.com/niigata-gosen-fudodo-hayade-river.html]]></description>
        <styleUrl>#icon-22</styleUrl>
        <Point>
          <coordinates>
            139.2118921,37.6891677,0
          </coordinates>
        </Point>
      </Placemark>
      <Placemark>
        <name>能代川中野橋ライブカメラ / Nodai River Nakanobashi Live Camera</name>
        <description><![CDATA[〒959-1754 新潟県五泉市中野橋 「新潟県河川防災情報システム」/ Nakanobashi, Gosen City, Niigata Prefecture 959-1754 “Niigata Prefecture River Disaster Prevention Information System”<br>https://livecamera.fujiyamasan.com/niigata-gosen-nakanohashi-nodai-river.html]]></description>
        <styleUrl>#icon-22</styleUrl>
        <Point>
          <coordinates>
            139.1466861,37.6887812,0
          </coordinates>
        </Point>
      </Placemark>
      <Placemark>
        <name>能代川千原ライブカメラ / Nodai River Chiwara Live Camera</name>
        <description><![CDATA[新潟県五泉市千原 「新潟県河川防災情報システム」/ Chiwara, Gosen City, Niigata Prefecture "Niigata River Disaster Prevention Information System"<br>https://livecamera.fujiyamasan.com/niigata-gosen-chihara-noudai-river.html]]></description>
        <styleUrl>#icon-22</styleUrl>
        <Point>
          <coordinates>
            139.1554427,37.7069314,0
          </coordinates>
        </Point>
      </Placemark>
      <Placemark>
        <name>能代川荻曽根川合流点ライブカメラ / Nodai River Ogizone River Confluence Live Camera</name>
        <description>新潟県五泉市五泉 「新潟県河川防災情報システム」/ Gosen, Gosen City, Niigata “Niigata Prefecture River Disaster Prevention Information System”</description>
        <styleUrl>#icon-22</styleUrl>
        <Point>
          <coordinates>
            139.1585469,37.7534637,0
          </coordinates>
        </Point>
      </Placemark>
      <Placemark>
        <name>阿賀野川佐取ライブカメラ / Aganogawa Sadori live camera</name>
        <description><![CDATA[新潟県阿賀野市小松 「国土交通省河川情報センター」/ Komatsu, Agano City, Niigata Prefecture “Ministry of Land, Infrastructure, Transport and Tourism River Information Center”<br>https://livecamera.fujiyamasan.com/niigata-gosen-sadori-agano-river.html]]></description>
        <styleUrl>#icon-22</styleUrl>
        <Point>
          <coordinates>
            139.281905,37.7356748,0
          </coordinates>
        </Point>
      </Placemark>
      <Placemark>
        <name>阿賀野川小流ライブカメラ / Agano River stream live camera</name>
        <description><![CDATA[新潟県五泉市小流 「国土交通省河川情報センター」/ Konagashi, Gosen City, Niigata Prefecture, <br>"Ministry of Land, Infrastructure, Transport and Tourism River Information Center"<br>https://livecamera.fujiyamasan.com/niigata-gosen-konagashi-agano-river.html]]></description>
        <styleUrl>#icon-22</styleUrl>
        <Point>
          <coordinates>
            139.2523317,37.743415,0
          </coordinates>
        </Point>
      </Placemark>
      <Placemark>
        <name>早出川善願橋ライブカメラ / Hayadegawa Zenganbashi Live Camera</name>
        <description><![CDATA[新潟県五泉市赤海 「阿賀野川河川事務所」/ Akoumi, Gosen City, Niigata Prefecture, "Agano River Office"]]></description>
        <styleUrl>#icon-22</styleUrl>
        <Point>
          <coordinates>
            139.1937021,37.7427521,0
          </coordinates>
        </Point>
      </Placemark>
      <Placemark>
        <name>阿賀野川馬下ライブカメラ / Agano River Maoroshi Live Camera</name>
        <description><![CDATA[新潟県五泉市馬下 「阿賀野川河川事務所」/ Maoroshi, Gosen City, Niigata Prefecture "Agano River Office"<br>https://livecamera.fujiyamasan.com/niigata-murakami-maoroshi-agano-river.html]]></description>
        <styleUrl>#icon-22</styleUrl>
        <Point>
          <coordinates>
            139.2689823,37.7386208,0
          </coordinates>
        </Point>
      </Placemark>
      <Placemark>
        <name>五泉市仙見川橋ライブカメラ / Gosen Senmigawabashi Live Camera</name>
        <description><![CDATA[新潟県五泉市矢津 「五泉市役所」/ Yazu, Gosen City, Niigata Prefecture, "Gosen City Hall"]]></description>
        <styleUrl>#icon-22</styleUrl>
        <Point>
          <coordinates>
            139.209779,37.6808537,0
          </coordinates>
        </Point>
      </Placemark>
      <Placemark>
        <name>五泉市城跡橋ライブカメラ / Gosen City Joseki Bridge Live Camera</name>
        <description><![CDATA[新潟県五泉市村松 「五泉市役所」/ Muramatsu, Gosen City, Niigata "Gosen City Hall"]]></description>
        <styleUrl>#icon-22</styleUrl>
        <Point>
          <coordinates>
            139.1787684,37.6896257,0
          </coordinates>
        </Point>
      </Placemark>
      <Placemark>
        <name>五泉市五部一橋ライブカメラ / Gosen City Gobu Hitotsubashi Live Camera</name>
        <description><![CDATA[新潟県五泉市青橋 「五泉市役所」/ Aohashi, Gosen City, Niigata Prefecture, "Gosen City Hall"]]></description>
        <styleUrl>#icon-22</styleUrl>
        <Point>
          <coordinates>
            139.1606421,37.6877979,0
          </coordinates>
        </Point>
      </Placemark>
      <Placemark>
        <name>五泉市新千歳橋ライブカメラ / Gosen City New Chitose Bridge Live Camera</name>
        <description><![CDATA[新潟県五泉市石倉 「五泉市役所」/ Ishikura, Gosen City, Niigata "Gosen City Hall"]]></description>
        <styleUrl>#icon-22</styleUrl>
        <Point>
          <coordinates>
            139.1545878,37.7433614,0
          </coordinates>
        </Point>
      </Placemark>
      <Placemark>
        <name>五泉市太川橋ライブカメラ / Gosen City Taikawabashi Live Camera</name>
        <description><![CDATA[新潟県五泉市赤羽 「五泉市役所」/ Akabane, Gosen, Niigata Prefecture<br>"Gosen City Hall"]]></description>
        <styleUrl>#icon-22</styleUrl>
        <Point>
          <coordinates>
            139.2019979,37.7326321,0
          </coordinates>
        </Point>
      </Placemark>
      <Placemark>
        <name>安野川大室ライブカメラ / Annogawa Omuro Live Camera</name>
        <description><![CDATA[新潟県阿賀野市大室「新潟県河川防災情報システム」/ Omuro, Agano City, Niigata Prefecture,<br>"Niigata River Disaster Prevention Information System"<br>https://livecamera.fujiyamasan.com/niigata-agano-omuro-annogawa.html]]></description>
        <styleUrl>#icon-22</styleUrl>
        <Point>
          <coordinates>
            139.2973126,37.7939962,0
          </coordinates>
        </Point>
      </Placemark>
      <Placemark>
        <name>安野川金田町ライブカメラ / Annogawa Kaneda Town Live Camera</name>
        <description><![CDATA[新潟県阿賀野市金田町 「新潟県河川防災情報システム」/ Kaneda Town, Agano City, Niigata Prefecture, "Niigata Prefecture River Disaster Prevention Information System"<br>https://livecamera.fujiyamasan.com/niigata-agano-kaneda-annogawa.html]]></description>
        <styleUrl>#icon-22</styleUrl>
        <Point>
          <coordinates>
            139.2301612,37.8267264,0
          </coordinates>
        </Point>
      </Placemark>
      <Placemark>
        <name>大荒川大野地樋門ライブカメラ / Oara River Onoji Himon Live Camera</name>
        <description><![CDATA[新潟県阿賀野市大野地 「新潟県河川防災情報システム」/ Oyachi, Agano City, Niigata Prefecture, "Niigata Prefecture River Disaster Prevention Information System"<br>https://livecamera.fujiyamasan.com/niigata-agano-oyachi-oarakawa.html]]></description>
        <styleUrl>#icon-22</styleUrl>
        <Point>
          <coordinates>
            139.2409668,37.8271493,0
          </coordinates>
        </Point>
      </Placemark>